{
  "restaurants": [
    {
      "title": "Բլեք Անգուս Ամերիկյան, Բուրգեր և Սենդվիչ, Պիցցա",
      "menu": "Ամերիկյան, Բուրգեր և Սենդվիչ, Պիցցա",
      "url": "/restaurant/black-angus-mashtots.html",
      "reyting": "98.8",
      "hours": "Աշխ. ժամեր08:00 - 05:00"
    },
    {
      "title": "Գենացվալե Պանդոկ Հավի գրիլ, Վրացական",
      "menu": "Հավի գրիլ, Վրացական",
      "url": "/restaurant/genacvale-pandok-paronyan.html",
      "reyting": "90.8",
      "hours": "24 ժամ"
    },
    {
      "title": "Պանդոկ Երևան Հայկական",
      "menu": "Հայկական",
      "url": "/restaurant/pandok-yerevan.html",
      "reyting": "89.2",
      "hours": "Աշխ. ժամեր09:30 - 23:00"
    },
    {
      "title": "Կարաս ազգային սննդի ցանց Հավի գրիլ, Հայկական",
      "menu": "Հավի գրիլ, Հայկական",
      "url": "/restaurant/karas-vardanants.html",
      "reyting": "87.2",
      "hours": "24 ժամ"
    },
    {
      "title": "Մր. Գիրոս Բուրգեր և Սենդվիչ, Եվրոպական, Հունական, Շաուրմա",
      "menu": "Բուրգեր և Սենդվիչ, Եվրոպական, Հունական, Շաուրմա",
      "url": "/restaurant/mr-gyros-komitas.html",
      "reyting": "95",
      "hours": "Աշխ. ժամեր10:00 - 04:00"
    },
    {
      "title": "Երևանի շաուրմա Լահմաջո, Խորոված, քյաբաբ, Հավի գրիլ, Կարկանդակ, Շաուրմա",
      "menu": "Լահմաջո, Խորոված, քյաբաբ, Հավի գրիլ, Կարկանդակ, Շաուրմա",
      "url": "/restaurant/yerevani-shaurma.html",
      "reyting": "93.4",
      "hours": "Աշխ. ժամեր10:00 - 23:00"
    },
    {
      "title": "Փաբ 37 Բուրգեր և Սենդվիչ, Գարեջրատուն և Փաբ, Եվրոպական, Լանչ",
      "menu": "Բուրգեր և Սենդվիչ, Գարեջրատուն և Փաբ, Եվրոպական, Լանչ",
      "url": "/restaurant/pub_37.html",
      "reyting": "0",
      "hours": "Աշխ. ժամեր12:00 - 01:00"
    },
    {
      "title": "Բելլա Իտալիա Լավ առաջարկ, Եվրոպական, Իտալական, Լանչ, Պաստա, Պիցցա",
      "menu": "Լավ առաջարկ, Եվրոպական, Իտալական, Լանչ, Պաստա, Պիցցա",
      "url": "/restaurant/bella-italia.html",
      "reyting": "70.8",
      "hours": "Աշխ. ժամեր10:00 - 22:00"
    },
    {
      "title": "Պիցցա Հատ Ամերիկյան, Պաստա, Պիցցա",
      "menu": "Ամերիկյան, Պաստա, Պիցցա",
      "url": "/restaurant/pizza-hut.html",
      "reyting": "91.8",
      "hours": "Աշխ. ժամեր10:00 - 23:00"
    },
    {
      "title": "Լիբանանյան շաուրմա  Լիբանանյան, Լավ առաջարկ, Արևելյան, Բուրգեր և Սենդվիչ, Շաուրմա",
      "menu": "Լիբանանյան, Լավ առաջարկ, Արևելյան, Բուրգեր և Սենդվիչ, Շաուրմա",
      "url": "/restaurant/lebanon-shawarma.html",
      "reyting": "86",
      "hours": "Աշխ. ժամեր09:30 - 03:00"
    },
    {
      "title": "Ծիրանի Խորոված, քյաբաբ, Հայկական",
      "menu": "Խորոված, քյաբաբ, Հայկական",
      "url": "/restaurant/tsirani.html",
      "reyting": "66",
      "hours": "Աշխ. ժամեր10:00 - 23:00"
    },
    {
      "title": "Լա Քուչինա Բուրգեր և Սենդվիչ, Եվրոպական, Իտալական, Պաստա, Պիցցա, Սթեյք",
      "menu": "Բուրգեր և Սենդվիչ, Եվրոպական, Իտալական, Պաստա, Պիցցա, Սթեյք",
      "url": "/restaurant/la-cucina.html",
      "reyting": "80",
      "hours": "Աշխ. ժամեր11:00 - 23:00"
    },
    {
      "title": "Վասաբի Լավ առաջարկ, Ասիական, Սուշի, Ճապոնական",
      "menu": "Լավ առաջարկ, Ասիական, Սուշի, Ճապոնական",
      "url": "/restaurant/wasabi.html",
      "reyting": "70",
      "hours": "Աշխ. ժամեր11:00 - 03:00"
    },
    {
      "title": "Կովկաս Պանդոկ Արցախյան, Լահմաջո, Խորոված, քյաբաբ, Հայկական, Նախաճաշ, Վրացական",
      "menu": "Արցախյան, Լահմաջո, Խորոված, քյաբաբ, Հայկական, Նախաճաշ, Վրացական",
      "url": "/restaurant/kovkas.html",
      "reyting": "77",
      "hours": "24 ժամ"
    },
    {
      "title": "Քեյ Էֆ Սի  Ամերիկյան, Բուրգեր և Սենդվիչ",
      "menu": "Ամերիկյան, Բուրգեր և Սենդվիչ",
      "url": "/restaurant/kfc-mashtots-avenue.html",
      "reyting": "88.8",
      "hours": "Աշխ. ժամեր10:00 - 01:00"
    },
    {
      "title": "Grill.am Լավ առաջարկ, Խորոված, քյաբաբ, Հավի գրիլ",
      "menu": "Լավ առաջարկ, Խորոված, քյաբաբ, Հավի գրիլ",
      "url": "/restaurant/grillam.html",
      "reyting": "81",
      "hours": "24 ժամ"
    },
    {
      "title": "Կլասիկ Բուրգեր Ամերիկյան, Բուրգեր և Սենդվիչ",
      "menu": "Ամերիկյան, Բուրգեր և Սենդվիչ",
      "url": "/restaurant/classic-burger.html",
      "reyting": "97.2",
      "hours": "Աշխ. ժամեր10:00 - 22:00"
    },
    {
      "title": "Պեկին Չինական, Լավ առաջարկ, Ասիական, Լանչ, Սուշի, Ճապոնական",
      "menu": "Չինական, Լավ առաջարկ, Ասիական, Լանչ, Սուշի, Ճապոնական",
      "url": "/restaurant/beijing.html",
      "reyting": "89",
      "hours": "Աշխ. ժամեր11:00 - 23:15"
    },
    {
      "title": "Զեյթունա Արևելյան, Սիրիական",
      "menu": "Արևելյան, Սիրիական",
      "url": "/restaurant/zeituna.html",
      "reyting": "0",
      "hours": "Աշխ. ժամեր11:45 - 23:00"
    },
    {
      "title": "Սաբթայթլ Ամերիկյան, Բուրգեր և Սենդվիչ",
      "menu": "Ամերիկյան, Բուրգեր և Սենդվիչ",
      "url": "/restaurant/subtitle.html",
      "reyting": "98.8",
      "hours": "Աշխ. ժամեր10:00 - 00:00"
    },
    {
      "title": "ԱԿՕ Սուշի Սուշի, Ճապոնական",
      "menu": "Սուշի, Ճապոնական",
      "url": "/restaurant/ako-sushi.html",
      "reyting": "81.6",
      "hours": "24 ժամ"
    },
    {
      "title": "Դոստոևսկի Բուրգեր և Սենդվիչ, Խորոված, քյաբաբ, Նախաճաշ, Պաստա, Սթեյք",
      "menu": "Բուրգեր և Սենդվիչ, Խորոված, քյաբաբ, Նախաճաշ, Պաստա, Սթեյք",
      "url": "/restaurant/dostoyevsky.html",
      "reyting": "0",
      "hours": "24 ժամ"
    },
    {
      "title": "Թեմուրնոց Խորոված, քյաբաբ",
      "menu": "Խորոված, քյաբաբ",
      "url": "/restaurant/temurnots.html",
      "reyting": "60",
      "hours": "Աշխ. ժամեր09:00 - 23:30"
    },
    {
      "title": "Կինոլոգիական Միություն Ընտանի կենդանիների կերեր",
      "menu": "Ընտանի կենդանիների կերեր",
      "url": "/restaurant/cynological-union.html",
      "reyting": "0",
      "hours": "Աշխ. ժամեր10:00 - 20:00"
    },
    {
      "title": "Զեյթունի Շաուրմա Բուրգեր և Սենդվիչ, Շաուրմա",
      "menu": "Բուրգեր և Սենդվիչ, Շաուրմա",
      "url": "/restaurant/zeytuni-shawarma.html",
      "reyting": "0",
      "hours": "Աշխ. ժամեր11:00 - 01:00"
    },
    {
      "title": "Նարինե Ջելլի Տորթ Քաղցրավենիք",
      "menu": "Քաղցրավենիք",
      "url": "/restaurant/narine-jelly.html",
      "reyting": "0",
      "hours": "Աշխ. ժամեր09:00 - 00:00"
    },
    {
      "title": "Եգիպտացորեն Ասիական",
      "menu": "Ասիական",
      "url": "/restaurant/corn.html",
      "reyting": "0",
      "hours": "Աշխ. ժամեր10:00 - 22:00"
    },
    {
      "title": "Քլաբ Բուրգեր Հոթ Դոգ, Բուրգեր և Սենդվիչ",
      "menu": "Հոթ Դոգ, Բուրգեր և Սենդվիչ",
      "url": "/restaurant/club-burger.html",
      "reyting": "0",
      "hours": "Աշխ. ժամեր10:00 - 23:00"
    },
    {
      "title": "Գրիլ էնդ Կո Հոթ Դոգ, Բուրգեր և Սենդվիչ",
      "menu": "Հոթ Դոգ, Բուրգեր և Սենդվիչ",
      "url": "/restaurant/grill-and-co.html",
      "reyting": "0",
      "hours": "Աշխ. ժամեր10:00 - 22:00"
    },
    {
      "title": "Գյուլբենկյան Փուռ Բուրգեր և Սենդվիչ, Հացաբուլկեղեն",
      "menu": "Բուրգեր և Սենդվիչ, Հացաբուլկեղեն",
      "url": "/restaurant/gyulbenkyan-pur.html",
      "reyting": "0",
      "hours": "Աշխ. ժամեր08:00 - 22:00"
    },
    {
      "title": "Մամա Միա Լավ առաջարկ, Եվրոպական, Իտալական, Պիցցա",
      "menu": "Լավ առաջարկ, Եվրոպական, Իտալական, Պիցցա",
      "url": "/restaurant/mama-mia-aleq-manukyan.html",
      "reyting": "70",
      "hours": "Աշխ. ժամեր10:00 - 01:30"
    },
    {
      "title": "Կառմա Ասիական, Հնդկական",
      "menu": "Ասիական, Հնդկական",
      "url": "/restaurant/karma.html",
      "reyting": "80",
      "hours": "Աշխ. ժամեր11:00 - 23:00"
    },
    {
      "title": "Ինդիան Մեհակ Ռեստորան Ասիական, Հնդկական",
      "menu": "Ասիական, Հնդկական",
      "url": "/restaurant/indian-mehak-restaurant.html",
      "reyting": "62",
      "hours": "Աշխ. ժամեր13:00 - 23:00"
    },
    {
      "title": "Դերյան Քեբաբ Ռեստորան Արևելյան, Լահմաջո, Խորոված, քյաբաբ",
      "menu": "Արևելյան, Լահմաջո, Խորոված, քյաբաբ",
      "url": "/restaurant/derian-kebab.html",
      "reyting": "66.6",
      "hours": "Աշխ. ժամեր12:30 - 22:00"
    },
    {
      "title": "ՓիթՍտոպ Բուրգեր  Լավ առաջարկ, Ամերիկյան, Բուրգեր և Սենդվիչ, Շաուրմա",
      "menu": "Լավ առաջարկ, Ամերիկյան, Բուրգեր և Սենդվիչ, Շաուրմա",
      "url": "/restaurant/pitstop-burger.html",
      "reyting": "88",
      "hours": "Աշխ. ժամեր11:00 - 04:00"
    },
    {
      "title": "Սասնատուն Պանդոկ Արարատյան, Խեցգետին, Լավ առաջարկ, Լահմաջո, Հայկական, Վրացական, Գարեջուր, Խեցգետին",
      "menu": "Արարատյան, Խեցգետին, Լավ առաջարկ, Լահմաջո, Հայկական, Վրացական, Գարեջուր, Խեցգետին",
      "url": "/restaurant/sasnatun-tavern.html",
      "reyting": "15",
      "hours": "Աշխ. ժամեր09:40 - 22:40"
    },
    {
      "title": "Լաբիրինթ Խեցգետին, Բուրգեր և Սենդվիչ, Գարեջրատուն և Փաբ, Խորոված, քյաբաբ, Կարկանդակ, Հայկական, Պիցցա",
      "menu": "Խեցգետին, Բուրգեր և Սենդվիչ, Գարեջրատուն և Փաբ, Խորոված, քյաբաբ, Կարկանդակ, Հայկական, Պիցցա",
      "url": "/restaurant/labeerint.html",
      "reyting": "0",
      "hours": "Աշխ. ժամեր11:30 - 02:30"
    },
    {
      "title": "Ալֆա Ֆարմ Մանկական սնունդ և տակդիր, Ալֆա Ֆարմ",
      "menu": "Մանկական սնունդ և տակդիր, Ալֆա Ֆարմ",
      "url": "/restaurant/alfa-pharm.html",
      "reyting": "90",
      "hours": "24 ժամ"
    },
    {
      "title": "Haf-Haf Ընտանի կենդանիների կերեր",
      "menu": "Ընտանի կենդանիների կերեր",
      "url": "/restaurant/haf-haf.html",
      "reyting": "95",
      "hours": "Աշխ. ժամեր10:00 - 22:00"
    },
    {
      "title": "Մոն Ամի Ծաղիկներ և Փուչիկներ",
      "menu": "Ծաղիկներ և Փուչիկներ",
      "url": "/restaurant/mon-amie.html",
      "reyting": "0",
      "hours": "24 ժամ"
    },
    {
      "title": "Ին Վինո Ըմպելիքներ և Խորտիկներ",
      "menu": "Ըմպելիքներ և Խորտիկներ",
      "url": "/restaurant/in-vino.html",
      "reyting": "100",
      "hours": "Աշխ. ժամեր11:00 - 00:00"
    },
    {
      "title": "Արիա Արևելյան, Իրանական/Պարսկական, Խորոված, քյաբաբ, Պաստա, Սթեյք",
      "menu": "Արևելյան, Իրանական/Պարսկական, Խորոված, քյաբաբ, Պաստա, Սթեյք",
      "url": "/restaurant/arya.html",
      "reyting": "80",
      "hours": "Աշխ. ժամեր10:00 - 00:00"
    },
    {
      "title": "Կոֆիսթորի Քաղցրավենիք, Եվրոպական, Սուրճ և Թեյ, Նախաճաշ, Պաստա",
      "menu": "Քաղցրավենիք, Եվրոպական, Սուրճ և Թեյ, Նախաճաշ, Պաստա",
      "url": "/restaurant/coffeestory.html",
      "reyting": "0",
      "hours": "Աշխ. ժամեր09:00 - 00:00"
    },
    {
      "title": "Դոկա Պիցցա  Բուրգեր և Սենդվիչ, Եվրոպական, Իտալական, Լահմաջո, Խորոված, քյաբաբ, Հավի գրիլ, Նախաճաշ, Պիցցա",
      "menu": "Բուրգեր և Սենդվիչ, Եվրոպական, Իտալական, Լահմաջո, Խորոված, քյաբաբ, Հավի գրիլ, Նախաճաշ, Պիցցա",
      "url": "/restaurant/doka-pizza.html",
      "reyting": "72.8",
      "hours": "24 ժամ"
    },
    {
      "title": "Հալապենո Մեքսիկական, Շաուրմա",
      "menu": "Մեքսիկական, Շաուրմա",
      "url": "/restaurant/jalapeno.html",
      "reyting": "0",
      "hours": "Աշխ. ժամեր11:00 - 21:00"
    },
    {
      "title": "Մարտիրոս Ասիական, Բուրգեր և Սենդվիչ",
      "menu": "Ասիական, Բուրգեր և Սենդվիչ",
      "url": "/restaurant/martiros.html",
      "reyting": "100",
      "hours": "Աշխ. ժամեր11:00 - 00:00"
    },
    {
      "title": "Թայմ Թու Իթ Ամերիկյան, Բուրգեր և Սենդվիչ",
      "menu": "Ամերիկյան, Բուրգեր և Սենդվիչ",
      "url": "/restaurant/time-to-eat.html",
      "reyting": "90",
      "hours": "Աշխ. ժամեր10:00 - 22:00"
    },
    {
      "title": "Պեկին Կասկադ Չինական, Լավ առաջարկ, Ասիական",
      "menu": "Չինական, Լավ առաջարկ, Ասիական",
      "url": "/restaurant/beijing-cascade.html",
      "reyting": "30",
      "hours": "Աշխ. ժամեր11:00 - 23:45"
    },
    {
      "title": "Աբու Հակոբ Լավ առաջարկ, Արևելյան, Բուրգեր և Սենդվիչ",
      "menu": "Լավ առաջարկ, Արևելյան, Բուրգեր և Սենդվիչ",
      "url": "/restaurant/abu-hagop-pushkin.html",
      "reyting": "78",
      "hours": "Աշխ. ժամեր12:00 - 23:30"
    },
    {
      "title": "Պիցցա Դի Ռոմա Եվրոպական, Իտալական, Խորոված, քյաբաբ, Պաստա, Պիցցա, Սթեյք",
      "menu": "Եվրոպական, Իտալական, Խորոված, քյաբաբ, Պաստա, Պիցցա, Սթեյք",
      "url": "/restaurant/pizza-di-roma.html",
      "reyting": "86.6",
      "hours": "Աշխ. ժամեր10:30 - 01:00"
    },
    {
      "title": "Ջանո Լավ առաջարկ, Արևելյան, Բուրգեր և Սենդվիչ, Լահմաջո, Խորոված, քյաբաբ, Հավի գրիլ",
      "menu": "Լավ առաջարկ, Արևելյան, Բուրգեր և Սենդվիչ, Լահմաջո, Խորոված, քյաբաբ, Հավի գրիլ",
      "url": "/restaurant/jano.html",
      "reyting": "95.2",
      "hours": "Աշխ. ժամեր11:00 - 23:40"
    },
    {
      "title": "Օստ Ֆուդ Կորտ Լահմաջո, Շաուրմա, Պիցցա",
      "menu": "Լահմաջո, Շաուրմա, Պիցցա",
      "url": "/restaurant/ost-bistro-mashtots.html",
      "reyting": "85.4",
      "hours": "Աշխ. ժամեր11:00 - 22:30"
    },
    {
      "title": "Ամերիկանո Պիցցա Պիցցա",
      "menu": "Պիցցա",
      "url": "/restaurant/americano-pizza.html",
      "reyting": "90",
      "hours": "Աշխ. ժամեր11:00 - 01:00"
    },
    {
      "title": "Ժակո Լավ առաջարկ, Արևելյան, Լահմաջո, Խորոված, քյաբաբ",
      "menu": "Լավ առաջարկ, Արևելյան, Լահմաջո, Խորոված, քյաբաբ",
      "url": "/restaurant/jaco.html",
      "reyting": "74",
      "hours": "Աշխ. ժամեր11:00 - 23:30"
    },
    {
      "title": "Քրամբս Քաղցրավենիք, Բուրգեր և Սենդվիչ, Հացաբուլկեղեն, Ֆրեշ, Պաղպաղակ, Նախաճաշ",
      "menu": "Քաղցրավենիք, Բուրգեր և Սենդվիչ, Հացաբուլկեղեն, Ֆրեշ, Պաղպաղակ, Նախաճաշ",
      "url": "/restaurant/crumbs-argishti.html",
      "reyting": "55",
      "hours": "Աշխ. ժամեր08:00 - 00:30"
    },
    {
      "title": "Թաուկ Լավ առաջարկ, Արևելյան, Բուրգեր և Սենդվիչ",
      "menu": "Լավ առաջարկ, Արևելյան, Բուրգեր և Սենդվիչ",
      "url": "/restaurant/tawouk.html",
      "reyting": "100",
      "hours": "Աշխ. ժամեր11:00 - 00:00"
    },
    {
      "title": "Առողջ Սնունդ Էկո և Օրգանական սնունդ",
      "menu": "Էկո և Օրգանական սնունդ",
      "url": "/restaurant/healthy-food.html",
      "reyting": "0",
      "hours": "Աշխ. ժամեր11:00 - 19:00"
    },
    {
      "title": "Աֆրիկյանների Ռեստորան Բուրգեր և Սենդվիչ, Լահմաջո, Խորոված, քյաբաբ, Հայկական, Շաուրմա, Պիցցա",
      "menu": "Բուրգեր և Սենդվիչ, Լահմաջո, Խորոված, քյաբաբ, Հայկական, Շաուրմա, Պիցցա",
      "url": "/restaurant/afrikyanneri-restaurant.html",
      "reyting": "0",
      "hours": "Աշխ. ժամեր11:00 - 23:00"
    },
    {
      "title": "Թուրինգյան Բրաթվուրստ Հոթ Դոգ, Գերմանական, Բուրգեր և Սենդվիչ, Շաուրմա, Սթեյք",
      "menu": "Հոթ Դոգ, Գերմանական, Բուրգեր և Սենդվիչ, Շաուրմա, Սթեյք",
      "url": "/restaurant/thuringer-bratwurst.html",
      "reyting": "0",
      "hours": "Աշխ. ժամեր10:30 - 01:50"
    },
    {
      "title": "Բուլդոգ Հոթ Դոգ, Բուրգեր և Սենդվիչ",
      "menu": "Հոթ Դոգ, Բուրգեր և Սենդվիչ",
      "url": "/restaurant/bulldog.html",
      "reyting": "100",
      "hours": "Աշխ. ժամեր11:00 - 23:50"
    },
    {
      "title": "Չարենցի 28 Արևելյան, Եվրոպական, Պաստա, Միջերկրածովյան",
      "menu": "Արևելյան, Եվրոպական, Պաստա, Միջերկրածովյան",
      "url": "/restaurant/charentsi_28.html",
      "reyting": "100",
      "hours": "Աշխ. ժամեր12:00 - 23:00"
    },
    {
      "title": "Մալօկկօ Կաֆե Բուրգեր և Սենդվիչ, Եվրոպական, Նախաճաշ, Պաստա, Սթեյք",
      "menu": "Բուրգեր և Սենդվիչ, Եվրոպական, Նախաճաշ, Պաստա, Սթեյք",
      "url": "/restaurant/malocco-cafe-tamanyan.html",
      "reyting": "93.4",
      "hours": "Աշխ. ժամեր10:00 - 00:00"
    },
    {
      "title": "Մալօկկօ թխվածք և ավելին Քաղցրավենիք",
      "menu": "Քաղցրավենիք",
      "url": "/restaurant/malocco-pastry-and-more.html",
      "reyting": "0",
      "hours": "Աշխ. ժամեր10:00 - 22:00"
    },
    {
      "title": "Սամուրայ Ասիական, Սուշի, Ճապոնական",
      "menu": "Ասիական, Սուշի, Ճապոնական",
      "url": "/restaurant/samurai-patver.html",
      "reyting": "0",
      "hours": "Աշխ. ժամեր12:00 - 23:45"
    },
    {
      "title": "Տանթունի Արևելյան, Բուրգեր և Սենդվիչ, Լահմաջո, Շաուրմա",
      "menu": "Արևելյան, Բուրգեր և Սենդվիչ, Լահմաջո, Շաուրմա",
      "url": "/restaurant/tantuni.html",
      "reyting": "0",
      "hours": "Աշխ. ժամեր10:00 - 22:00"
    },
    {
      "title": "Թոմաս Սմոքի Րիբս Ամերիկյան, Բուրգեր և Սենդվիչ, Լանչ, Սթեյք, Գարեջուր, Խեցգետին",
      "menu": "Ամերիկյան, Բուրգեր և Սենդվիչ, Լանչ, Սթեյք, Գարեջուր, Խեցգետին",
      "url": "/restaurant/tomas-smokey-ribs.html",
      "reyting": "100",
      "hours": "Աշխ. ժամեր10:00 - 01:00"
    },
    {
      "title": "Կակտուս Մեքսիկական, Սթեյք",
      "menu": "Մեքսիկական, Սթեյք",
      "url": "/restaurant/cactus.html",
      "reyting": "70",
      "hours": "Աշխ. ժամեր10:30 - 00:00"
    },
    {
      "title": "Լագոնիտ Արևելյան",
      "menu": "Արևելյան",
      "url": "/restaurant/lagonid.html",
      "reyting": "100",
      "hours": "Աշխ. ժամեր10:00 - 23:00"
    },
    {
      "title": "Արցախի բարիքներ Ըմպելիքներ և Խորտիկներ, Հայկական",
      "menu": "Ըմպելիքներ և Խորտիկներ, Հայկական",
      "url": "/restaurant/artsakhi-bariqner.html",
      "reyting": "0",
      "hours": "Աշխ. ժամեր10:00 - 19:00"
    },
    {
      "title": "Արևելյան Խոհանոց Արևելյան, Լահմաջո, Խորոված, քյաբաբ, Պիցցա, Սթեյք",
      "menu": "Արևելյան, Լահմաջո, Խորոված, քյաբաբ, Պիցցա, Սթեյք",
      "url": "/restaurant/eastern-cuisine.html",
      "reyting": "76.2",
      "hours": "24 ժամ"
    },
    {
      "title": "Պաուլաներ Գերմանական, Խեցգետին, Գարեջրատուն և Փաբ, Եվրոպական, Սթեյք",
      "menu": "Գերմանական, Խեցգետին, Գարեջրատուն և Փաբ, Եվրոպական, Սթեյք",
      "url": "/restaurant/paulaner.html",
      "reyting": "100",
      "hours": "Աշխ. ժամեր11:00 - 23:45"
    },
    {
      "title": "Լավ Թեյ Արտադրված է Հայաստանում, Սուրճ և Թեյ",
      "menu": "Արտադրված է Հայաստանում, Սուրճ և Թեյ",
      "url": "/restaurant/love-tea.html",
      "reyting": "0",
      "hours": "Աշխ. ժամեր09:30 - 18:00"
    },
    {
      "title": "Գրանդ Փըթեյթո Եվրոպական",
      "menu": "Եվրոպական",
      "url": "/restaurant/grand-potato.html",
      "reyting": "100",
      "hours": "Աշխ. ժամեր10:00 - 22:00"
    },
    {
      "title": "Արշավներ Ակումբ սրճարան և փաբ Բուրգեր և Սենդվիչ, Եվրոպական, Լանչ",
      "menu": "Բուրգեր և Սենդվիչ, Եվրոպական, Լանչ",
      "url": "/restaurant/arshavner-club-cafe-and-pub.html",
      "reyting": "0",
      "hours": "Աշխ. ժամեր12:00 - 02:00"
    },
    {
      "title": "Արմադ",
      "menu": "",
      "url": "/restaurant/armad.html",
      "reyting": "0",
      "hours": "Աշխ. ժամեր08:00 - 03:00"
    },
    {
      "title": "Ապարան Ջուր Ըմպելիքներ և Խորտիկներ",
      "menu": "Ըմպելիքներ և Խորտիկներ",
      "url": "/restaurant/aparan-water.html",
      "reyting": "100",
      "hours": "Աշխ. ժամեր11:00 - 23:00"
    },
    {
      "title": "Իմ Ամրոցը Խորոված, քյաբաբ, Պաստա, Պիցցա",
      "menu": "Խորոված, քյաբաբ, Պաստա, Պիցցա",
      "url": "/restaurant/my-castle.html",
      "reyting": "0",
      "hours": "Աշխ. ժամեր11:00 - 23:00"
    },
    {
      "title": "Թուֆենկյան Խարբերդ Ռեստորան Արևելյան, Լահմաջո, Հայկական, Պաստա",
      "menu": "Արևելյան, Լահմաջո, Հայկական, Պաստա",
      "url": "/restaurant/tufenkian-kharpert-restaurant.html",
      "reyting": "40",
      "hours": "Աշխ. ժամեր07:30 - 22:30"
    },
    {
      "title": "Արաբեսք Արևելյան",
      "menu": "Արևելյան",
      "url": "/restaurant/arabesque.html",
      "reyting": "100",
      "hours": "Աշխ. ժամեր10:00 - 22:00"
    },
    {
      "title": "Կարլոֆֆ Չեխական ռեստորան-գարեջրատուն Գարեջրատուն և Փաբ, Եվրոպական, Գարեջուր, Խեցգետին",
      "menu": "Գարեջրատուն և Փաբ, Եվրոպական, Գարեջուր, Խեցգետին",
      "url": "/restaurant/karloff-czech-brewery.html",
      "reyting": "0",
      "hours": "Աշխ. ժամեր11:00 - 00:00"
    },
    {
      "title": "Նավավար Ձուկ և ծովամթերք, Եվրոպական",
      "menu": "Ձուկ և ծովամթերք, Եվրոպական",
      "url": "/restaurant/navavar.html",
      "reyting": "20",
      "hours": "Աշխ. ժամեր17:00 - 23:30"
    },
    {
      "title": "Պռոշյանի Կոնյակի Գործարան Գաստրոնոմ, Ըմպելիքներ և Խորտիկներ",
      "menu": "Գաստրոնոմ, Ըմպելիքներ և Խորտիկներ",
      "url": "/restaurant/proshyan-brandy-factory.html",
      "reyting": "0",
      "hours": "Աշխ. ժամեր11:00 - 23:00"
    },
    {
      "title": "Փարթիտտո Ծաղիկներ և Փուչիկներ",
      "menu": "Ծաղիկներ և Փուչիկներ",
      "url": "/restaurant/partytto.html",
      "reyting": "98",
      "hours": "Աշխ. ժամեր09:30 - 21:00"
    },
    {
      "title": "Էյֆել  Լավ առաջարկ, Նվեր Քարտ",
      "menu": "Լավ առաջարկ, Նվեր Քարտ",
      "url": "/restaurant/eiffel-gift-cards.html",
      "reyting": "0",
      "hours": "Աշխ. ժամեր10:00 - 20:00"
    },
    {
      "title": "Սվոչ Լավ առաջարկ, Նվեր Քարտ",
      "menu": "Լավ առաջարկ, Նվեր Քարտ",
      "url": "/restaurant/swatch-gift-cards.html",
      "reyting": "0",
      "hours": "Աշխ. ժամեր10:00 - 20:00"
    },
    {
      "title": "Պանացեա Գաստրոնոմ Բուտիկ Գաստրոնոմ, Ըմպելիքներ և Խորտիկներ, Սուրճ և Թեյ",
      "menu": "Գաստրոնոմ, Ըմպելիքներ և Խորտիկներ, Սուրճ և Թեյ",
      "url": "/restaurant/panatsea.html",
      "reyting": "100",
      "hours": "Աշխ. ժամեր09:00 - 20:30"
    },
    {
      "title": "Ինորի Լավ առաջարկ, Նվեր Քարտ",
      "menu": "Լավ առաջարկ, Նվեր Քարտ",
      "url": "/restaurant/inori-gift-card.html",
      "reyting": "0",
      "hours": "Աշխ. ժամեր11:00 - 20:30"
    },
    {
      "title": "Գրին Դեյ Քաղցրավենիք, Գաստրոնոմ, Էկո և Օրգանական սնունդ, Ըմպելիքներ և Խորտիկներ, Սուրճ և Թեյ",
      "menu": "Քաղցրավենիք, Գաստրոնոմ, Էկո և Օրգանական սնունդ, Ըմպելիքներ և Խորտիկներ, Սուրճ և Թեյ",
      "url": "/restaurant/green-day.html",
      "reyting": "0",
      "hours": "Աշխ. ժամեր10:00 - 19:00"
    },
    {
      "title": "Բուկինիստ Գրախանութների Ցանց Լավ առաջարկ, Նվեր Քարտ",
      "menu": "Լավ առաջարկ, Նվեր Քարտ",
      "url": "/restaurant/bookinist-bookstores-chain-gift-card.html",
      "reyting": "0",
      "hours": "Աշխ. ժամեր10:00 - 21:00"
    },
    {
      "title": "Չոքլիթ Սթորի Քաղցրավենիք",
      "menu": "Քաղցրավենիք",
      "url": "/restaurant/chocolate-story.html",
      "reyting": "0",
      "hours": "Աշխ. ժամեր13:00 - 17:00"
    },
    {
      "title": "Արմ Հուկա Նարգիլե և Սիգար",
      "menu": "Նարգիլե և Սիգար",
      "url": "/restaurant/armhookah.html",
      "reyting": "100",
      "hours": "Աշխ. ժամեր11:00 - 04:00"
    },
    {
      "title": "Բոչկա Լահմաջո, Խորոված, քյաբաբ, Հայկական, Սթեյք",
      "menu": "Լահմաջո, Խորոված, քյաբաբ, Հայկական, Սթեյք",
      "url": "/restaurant/bochka-restaurant.html",
      "reyting": "0",
      "hours": "Աշխ. ժամեր11:00 - 00:00"
    },
    {
      "title": "Մագա Ծաղկի Սրահ Ծաղիկներ և Փուչիկներ",
      "menu": "Ծաղիկներ և Փուչիկներ",
      "url": "/restaurant/maga-flower-boutique.html",
      "reyting": "0",
      "hours": "24 ժամ"
    },
    {
      "title": "Բեյգլ շոփ Քաղցրավենիք, Ամերիկյան, Բուրգեր և Սենդվիչ",
      "menu": "Քաղցրավենիք, Ամերիկյան, Բուրգեր և Սենդվիչ",
      "url": "/restaurant/bagel-shop.html",
      "reyting": "0",
      "hours": "Աշխ. ժամեր08:00 - 20:00"
    },
    {
      "title": "Կրեպ Հաուս Քաղցրավենիք, Եվրոպական",
      "menu": "Քաղցրավենիք, Եվրոպական",
      "url": "/restaurant/crepe-house.html",
      "reyting": "100",
      "hours": "Աշխ. ժամեր10:00 - 23:00"
    },
    {
      "title": "Ֆիթնես Քուք Քաղցրավենիք, Էկո և Օրգանական սնունդ",
      "menu": "Քաղցրավենիք, Էկո և Օրգանական սնունդ",
      "url": "/restaurant/fitness-cook.html",
      "reyting": "100",
      "hours": "Աշխ. ժամեր11:00 - 18:00"
    },
    {
      "title": "Լիբանան Ռեստորան Լիբանանյան, Արևելյան, Բուրգեր և Սենդվիչ, Խորոված, քյաբաբ, Միջերկրածովյան",
      "menu": "Լիբանանյան, Արևելյան, Բուրգեր և Սենդվիչ, Խորոված, քյաբաբ, Միջերկրածովյան",
      "url": "/restaurant/lebanon-restaurant.html",
      "reyting": "0",
      "hours": "Աշխ. ժամեր10:00 - 23:30"
    },
    {
      "title": "Սվարովսկի Լավ առաջարկ, Նվեր Քարտ",
      "menu": "Լավ առաջարկ, Նվեր Քարտ",
      "url": "/restaurant/swarovski-gift-card.html",
      "reyting": "0",
      "hours": "Աշխ. ժամեր11:00 - 20:00"
    },
    {
      "title": "Պնդուկ Գաստրոնոմ",
      "menu": "Գաստրոնոմ",
      "url": "/restaurant/pnduk.html",
      "reyting": "0",
      "hours": "Աշխ. ժամեր10:30 - 23:00"
    },
    {
      "title": "Թոնրատուն Ոսկե Աքաղաղ Արցախյան, Լավ առաջարկ, Լահմաջո, Խորոված, քյաբաբ, Հավի գրիլ, Լանչ, Հայկական, Շաուրմա",
      "menu": "Արցախյան, Լավ առաջարկ, Լահմաջո, Խորոված, քյաբաբ, Հավի գրիլ, Լանչ, Հայկական, Շաուրմա",
      "url": "/restaurant/tonratun-voske-aqaghagh.html",
      "reyting": "48.8",
      "hours": "Աշխ. ժամեր10:00 - 00:30"
    },
    {
      "title": "Ա. Ս. Լանչ և Բեյքըրի Լանչ, Հայկական",
      "menu": "Լանչ, Հայկական",
      "url": "/restaurant/a-s-lunch-and-bakery.html",
      "reyting": "100",
      "hours": "Աշխ. ժամեր09:00 - 19:00"
    },
    {
      "title": "ԲիԷլլա Թարմ միս և մսամթերք, Կիսաֆաբրիկատներ",
      "menu": "Թարմ միս և մսամթերք, Կիսաֆաբրիկատներ",
      "url": "/restaurant/biella.html",
      "reyting": "0",
      "hours": "Աշխ. ժամեր10:00 - 20:00"
    },
    {
      "title": "Ֆորէվր Էկո և Օրգանական սնունդ, Կիսաֆաբրիկատներ",
      "menu": "Էկո և Օրգանական սնունդ, Կիսաֆաբրիկատներ",
      "url": "/restaurant/4ever.html",
      "reyting": "0",
      "hours": "Աշխ. ժամեր10:00 - 18:00"
    },
    {
      "title": "Հալալե Ձուկ և ծովամթերք, Իրանական/Պարսկական, Խորոված, քյաբաբ",
      "menu": "Ձուկ և ծովամթերք, Իրանական/Պարսկական, Խորոված, քյաբաբ",
      "url": "/restaurant/halale.html",
      "reyting": "0",
      "hours": "Աշխ. ժամեր10:30 - 23:30"
    },
    {
      "title": "Բալենի Ձուկ և ծովամթերք, Բուրգեր և Սենդվիչ, Եվրոպական, Պաստա, Սթեյք",
      "menu": "Ձուկ և ծովամթերք, Բուրգեր և Սենդվիչ, Եվրոպական, Պաստա, Սթեյք",
      "url": "/restaurant/baleni.html",
      "reyting": "0",
      "hours": "Աշխ. ժամեր11:00 - 23:30"
    },
    {
      "title": "Կաֆե Շամպայն Բուրգեր և Սենդվիչ, Եվրոպական, Լանչ, Պաստա, Պիցցա, Սթեյք",
      "menu": "Բուրգեր և Սենդվիչ, Եվրոպական, Լանչ, Պաստա, Պիցցա, Սթեյք",
      "url": "/restaurant/cafe-champagne.html",
      "reyting": "0",
      "hours": "Աշխ. ժամեր11:00 - 23:00"
    },
    {
      "title": "Պոդվալլ Բուրգեր և Սենդվիչ, Պաստա, Սթեյք",
      "menu": "Բուրգեր և Սենդվիչ, Պաստա, Սթեյք",
      "url": "/restaurant/podwall.html",
      "reyting": "0",
      "hours": "Աշխ. ժամեր12:00 - 23:00"
    },
    {
      "title": "Քաղաքից Դուրս Ձուկ և ծովամթերք, Խորոված, քյաբաբ",
      "menu": "Ձուկ և ծովամթերք, Խորոված, քյաբաբ",
      "url": "/restaurant/countryside.html",
      "reyting": "0",
      "hours": "Աշխ. ժամեր10:00 - 00:00"
    },
    {
      "title": "Մեցցո Ասիական, Սուշի, Ճապոնական",
      "menu": "Ասիական, Սուշի, Ճապոնական",
      "url": "/restaurant/mezzo-classic-house-club.html",
      "reyting": "60",
      "hours": "Աշխ. ժամեր12:00 - 01:00"
    },
    {
      "title": "Մոզաիկ Ասիական, Եվրոպական, Նախաճաշ, Պաստա, Սթեյք",
      "menu": "Ասիական, Եվրոպական, Նախաճաշ, Պաստա, Սթեյք",
      "url": "/restaurant/mozaic.html",
      "reyting": "0",
      "hours": "Աշխ. ժամեր12:00 - 00:00"
    },
    {
      "title": "Հոթ Գրիլ Փաբ Ձուկ և ծովամթերք, Խեցգետին, Բուրգեր և Սենդվիչ, Լահմաջո, Խորոված, քյաբաբ, Հավի գրիլ, Շաուրմա",
      "menu": "Ձուկ և ծովամթերք, Խեցգետին, Բուրգեր և Սենդվիչ, Լահմաջո, Խորոված, քյաբաբ, Հավի գրիլ, Շաուրմա",
      "url": "/restaurant/hot-grill-pub.html",
      "reyting": "0",
      "hours": "Աշխ. ժամեր11:00 - 23:00"
    },
    {
      "title": "Էն Սվիթ Ստուդիո Քաղցրավենիք",
      "menu": "Քաղցրավենիք",
      "url": "/restaurant/n-sweet-studio.html",
      "reyting": "0",
      "hours": "Աշխ. ժամեր11:00 - 20:00"
    },
    {
      "title": "Գուրման Աղցան Եվրոպական",
      "menu": "Եվրոպական",
      "url": "/restaurant/gurman-salad.html",
      "reyting": "0",
      "hours": "Աշխ. ժամեր09:00 - 01:00"
    },
    {
      "title": "Լինզ Էքսպրեսս Մանկական սնունդ և տակդիր, Կոնտակտային ոսպնյակներ",
      "menu": "Մանկական սնունդ և տակդիր, Կոնտակտային ոսպնյակներ",
      "url": "/restaurant/linz-express.html",
      "reyting": "0",
      "hours": "Աշխ. ժամեր10:00 - 22:00"
    },
    {
      "title": "Կոնո Պիցցա Պիցցա",
      "menu": "Պիցցա",
      "url": "/restaurant/kono-pizza-new.html",
      "reyting": "20",
      "hours": "Աշխ. ժամեր10:30 - 23:00"
    },
    {
      "title": "Ֆեյսֆուդ Բուրգեր և Սենդվիչ, Պաստա",
      "menu": "Բուրգեր և Սենդվիչ, Պաստա",
      "url": "/restaurant/facefood.html",
      "reyting": "100",
      "hours": "Աշխ. ժամեր11:00 - 21:00"
    },
    {
      "title": "Վոկ ընդ Ռոլ Ասիական, Ֆրեշ, Պաղպաղակ, Թայլանդական, Պաստա, Պիցցա, Սուշի",
      "menu": "Ասիական, Ֆրեշ, Պաղպաղակ, Թայլանդական, Պաստա, Պիցցա, Սուշի",
      "url": "/restaurant/wok-and-roll.html",
      "reyting": "85.8",
      "hours": "Աշխ. ժամեր11:00 - 23:15"
    },
    {
      "title": "Քյավառի Բուրգեր և Սենդվիչ, Հայկական",
      "menu": "Բուրգեր և Սենդվիչ, Հայկական",
      "url": "/restaurant/kyavari.html",
      "reyting": "0",
      "hours": "Աշխ. ժամեր10:00 - 23:00"
    },
    {
      "title": "Բյուրոկրատ Գրախանութ Նվեր Քարտ",
      "menu": "Նվեր Քարտ",
      "url": "/restaurant/bureaucrat-bookstore-gift-card.html",
      "reyting": "0",
      "hours": "Աշխ. ժամեր11:00 - 00:00"
    },
    {
      "title": "Գուրման Լահմաջո, Խորոված, քյաբաբ, Հավի գրիլ, Լանչ, Կարկանդակ, Հայկական, Շաուրմա, Վրացական",
      "menu": "Լահմաջո, Խորոված, քյաբաբ, Հավի գրիլ, Լանչ, Կարկանդակ, Հայկական, Շաուրմա, Վրացական",
      "url": "/restaurant/gurman.html",
      "reyting": "0",
      "hours": "Աշխ. ժամեր10:00 - 22:00"
    },
    {
      "title": "Քեբաբջի Պանդոկ Արևելյան, Բուրգեր և Սենդվիչ, Լահմաջո, Խորոված, քյաբաբ, Արաբական",
      "menu": "Արևելյան, Բուրգեր և Սենդվիչ, Լահմաջո, Խորոված, քյաբաբ, Արաբական",
      "url": "/restaurant/kebabji-pandok.html",
      "reyting": "0",
      "hours": "Աշխ. ժամեր11:30 - 23:00"
    },
    {
      "title": "Շաշլիչնիյ Դվոր Խորոված, քյաբաբ",
      "menu": "Խորոված, քյաբաբ",
      "url": "/restaurant/shashlichniy-dvor.html",
      "reyting": "0",
      "hours": "24 ժամ"
    },
    {
      "title": "Լանչ Հաուս Հոթ Դոգ, Բուրգեր և Սենդվիչ, Լանչ, Շաուրմա",
      "menu": "Հոթ Դոգ, Բուրգեր և Սենդվիչ, Լանչ, Շաուրմա",
      "url": "/restaurant/lunch-house.html",
      "reyting": "80",
      "hours": "Աշխ. ժամեր10:00 - 22:00"
    },
    {
      "title": "Սիամուդս Լավ առաջարկ, Նվեր Քարտ",
      "menu": "Լավ առաջարկ, Նվեր Քարտ",
      "url": "/restaurant/siamoods-gift-card.html",
      "reyting": "0",
      "hours": "Աշխ. ժամեր10:00 - 22:00"
    },
    {
      "title": "Եռանկյունի Տուն-Ռեստորան Խորոված, քյաբաբ, Հայկական",
      "menu": "Խորոված, քյաբաբ, Հայկական",
      "url": "/restaurant/yerankyuni-restaurant.html",
      "reyting": "0",
      "hours": "Աշխ. ժամեր10:00 - 00:00"
    },
    {
      "title": "Արաբիկանո Արևելյան, Բուրգեր և Սենդվիչ, Շաուրմա",
      "menu": "Արևելյան, Բուրգեր և Սենդվիչ, Շաուրմա",
      "url": "/restaurant/arapicano.html",
      "reyting": "0",
      "hours": "Աշխ. ժամեր11:30 - 22:30"
    },
    {
      "title": "Այ Եմ Չուռո Քաղցրավենիք",
      "menu": "Քաղցրավենիք",
      "url": "/restaurant/i-am-churro.html",
      "reyting": "0",
      "hours": "Աշխ. ժամեր11:30 - 20:00"
    },
    {
      "title": "Տրապեզա Ձուկ և ծովամթերք, Բուրգեր և Սենդվիչ, Եվրոպական, Պիցցա, Սթեյք",
      "menu": "Ձուկ և ծովամթերք, Բուրգեր և Սենդվիչ, Եվրոպական, Պիցցա, Սթեյք",
      "url": "/restaurant/trapeza.html",
      "reyting": "0",
      "hours": "Աշխ. ժամեր11:00 - 22:30"
    },
    {
      "title": "Պանդորա Լավ առաջարկ, Նվեր Քարտ",
      "menu": "Լավ առաջարկ, Նվեր Քարտ",
      "url": "/restaurant/pandora-gift-card.html",
      "reyting": "0",
      "hours": "Աշխ. ժամեր10:00 - 22:00"
    },
    {
      "title": "Թայմ Լավ առաջարկ, Նվեր Քարտ",
      "menu": "Լավ առաջարկ, Նվեր Քարտ",
      "url": "/restaurant/time-gift-card.html",
      "reyting": "0",
      "hours": "Աշխ. ժամեր10:00 - 22:00"
    },
    {
      "title": "Վերոնա Գարեջրատուն Գարեջրատուն և Փաբ, Եվրոպական, Սթեյք",
      "menu": "Գարեջրատուն և Փաբ, Եվրոպական, Սթեյք",
      "url": "/restaurant/verona-beer-house.html",
      "reyting": "20",
      "hours": "Աշխ. ժամեր09:00 - 00:00"
    },
    {
      "title": "Թումանյան Պանդոկ Խորոված, քյաբաբ, Հայկական, Վրացական, Կովկասյան",
      "menu": "Խորոված, քյաբաբ, Հայկական, Վրացական, Կովկասյան",
      "url": "/restaurant/tumanyan-pandok.html",
      "reyting": "10",
      "hours": "Աշխ. ժամեր10:00 - 23:00"
    },
    {
      "title": "ԲելլաՎիստա Իտալիա Եվրոպական, Իտալական, Պաստա, Պիցցա",
      "menu": "Եվրոպական, Իտալական, Պաստա, Պիցցա",
      "url": "/restaurant/bellavista-italia.html",
      "reyting": "0",
      "hours": "Աշխ. ժամեր11:00 - 01:00"
    },
    {
      "title": "Տաք Կաթսա Լահմաջո, Կարկանդակ",
      "menu": "Լահմաջո, Կարկանդակ",
      "url": "/restaurant/taq-katsa.html",
      "reyting": "0",
      "hours": "Աշխ. ժամեր10:00 - 18:00"
    },
    {
      "title": "Նաթքրեքեր Ըմպելիքներ և Խորտիկներ",
      "menu": "Ըմպելիքներ և Խորտիկներ",
      "url": "/restaurant/nutcracker.html",
      "reyting": "0",
      "hours": "Աշխ. ժամեր10:00 - 22:00"
    },
    {
      "title": "Ադամիում Ըմպելիքներ և Խորտիկներ",
      "menu": "Ըմպելիքներ և Խորտիկներ",
      "url": "/restaurant/adamium.html",
      "reyting": "0",
      "hours": "Աշխ. ժամեր09:00 - 20:30"
    },
    {
      "title": "Հալեպ-Երևան Արևելյան, Բուրգեր և Սենդվիչ, Շաուրմա, Պիցցա",
      "menu": "Արևելյան, Բուրգեր և Սենդվիչ, Շաուրմա, Պիցցա",
      "url": "/restaurant/halep-yerevan.html",
      "reyting": "0",
      "hours": "Աշխ. ժամեր10:00 - 22:00"
    },
    {
      "title": "Լուպին Բոբա Ֆրեշ, Պաղպաղակ, Սուրճ և Թեյ",
      "menu": "Ֆրեշ, Պաղպաղակ, Սուրճ և Թեյ",
      "url": "/restaurant/lupin-boba.html",
      "reyting": "100",
      "hours": "Աշխ. ժամեր08:30 - 20:00"
    },
    {
      "title": "ԿինոՊարկ Ըմպելիքներ և Խորտիկներ",
      "menu": "Ըմպելիքներ և Խորտիկներ",
      "url": "/restaurant/kinopark.html",
      "reyting": "0",
      "hours": "Աշխ. ժամեր10:00 - 00:00"
    },
    {
      "title": "Ֆեյմըս Կալյան Նարգիլե և Սիգար",
      "menu": "Նարգիլե և Սիգար",
      "url": "/restaurant/famous-kalyan-new.html",
      "reyting": "0",
      "hours": "Աշխ. ժամեր13:00 - 02:00"
    },
    {
      "title": "Ալֆա Ֆարմ Նվեր քարտ Լավ առաջարկ, Նվեր Քարտ",
      "menu": "Լավ առաջարկ, Նվեր Քարտ",
      "url": "/restaurant/alfa-pharm-gift-card.html",
      "reyting": "0",
      "hours": "24 ժամ"
    },
    {
      "title": "Ռաֆֆաելլո Ռեսատորան և Պիցցերիա Լավ առաջարկ, Իտալական, Պիցցա",
      "menu": "Լավ առաջարկ, Իտալական, Պիցցա",
      "url": "/restaurant/raffaello-restaurant-and-pizzeria.html",
      "reyting": "0",
      "hours": "Աշխ. ժամեր12:00 - 23:00"
    },
    {
      "title": "Էմիլի ծաղկի սրահ Ծաղիկներ և Փուչիկներ",
      "menu": "Ծաղիկներ և Փուչիկներ",
      "url": "/restaurant/emily-flower-shop.html",
      "reyting": "0",
      "hours": "24 ժամ"
    },
    {
      "title": "Ուրֆա Ֆասթ Ֆուդ Արևելյան, Բուրգեր և Սենդվիչ, Սիրիական",
      "menu": "Արևելյան, Բուրգեր և Սենդվիչ, Սիրիական",
      "url": "/restaurant/urfa-fast-food.html",
      "reyting": "0",
      "hours": "Աշխ. ժամեր11:00 - 22:30"
    },
    {
      "title": "Ֆան-Ֆան Քեյքս Քաղցրավենիք",
      "menu": "Քաղցրավենիք",
      "url": "/restaurant/fan-fan-cakes.html",
      "reyting": "100",
      "hours": "Աշխ. ժամեր09:00 - 20:00"
    },
    {
      "title": "Կոլոսոկ Հայկական",
      "menu": "Հայկական",
      "url": "/restaurant/kolosok.html",
      "reyting": "0",
      "hours": "Աշխ. ժամեր09:00 - 18:00"
    },
    {
      "title": "Պապարացի Քաղցրավենիք, Պաստա, Պիցցա",
      "menu": "Քաղցրավենիք, Պաստա, Պիցցա",
      "url": "/restaurant/paparazzi-cafe.html",
      "reyting": "0",
      "hours": "Աշխ. ժամեր10:00 - 02:00"
    },
    {
      "title": "ՊաՊա Պիցցա Պիցցա",
      "menu": "Պիցցա",
      "url": "/restaurant/papa-pizza.html",
      "reyting": "0",
      "hours": "Աշխ. ժամեր09:00 - 21:00"
    },
    {
      "title": "Մանե Ռեստորան-Ցուցասրահ Բուրգեր և Սենդվիչ, Եվրոպական, Հայկական, Պաստա, Սթեյք",
      "menu": "Բուրգեր և Սենդվիչ, Եվրոպական, Հայկական, Պաստա, Սթեյք",
      "url": "/restaurant/mane-restaurant-showroom.html",
      "reyting": "0",
      "hours": "Աշխ. ժամեր09:00 - 00:00"
    },
    {
      "title": "Լուի Շարդեն Բրեդ ընդ Բեյքրի Հացաբուլկեղեն, Ֆրանսիական",
      "menu": "Հացաբուլկեղեն, Ֆրանսիական",
      "url": "/restaurant/louis-charden-bread-and-bakery.html",
      "reyting": "0",
      "hours": "Աշխ. ժամեր08:30 - 23:30"
    },
    {
      "title": "Տարբեր Ձուկ և ծովամթերք, Եվրոպական, Պաստա",
      "menu": "Ձուկ և ծովամթերք, Եվրոպական, Պաստա",
      "url": "/restaurant/tarber.html",
      "reyting": "0",
      "hours": "Աշխ. ժամեր10:00 - 22:00"
    },
    {
      "title": "Վանիլա Քաղցրավենիք",
      "menu": "Քաղցրավենիք",
      "url": "/restaurant/vanila.html",
      "reyting": "0",
      "hours": "Աշխ. ժամեր09:00 - 21:00"
    },
    {
      "title": "Բոնժուղ Բուրգեր և Սենդվիչ, Հացաբուլկեղեն",
      "menu": "Բուրգեր և Սենդվիչ, Հացաբուլկեղեն",
      "url": "/restaurant/bonjour.html",
      "reyting": "0",
      "hours": "Աշխ. ժամեր09:00 - 20:00"
    },
    {
      "title": "Նոննո Ադրիանո Պիցցա",
      "menu": "Պիցցա",
      "url": "/restaurant/nonno-adriano.html",
      "reyting": "100",
      "hours": "Աշխ. ժամեր10:00 - 22:00"
    },
    {
      "title": "Ֆրեշ Շոփ Ֆրեշ, Պաղպաղակ, Սուրճ և Թեյ",
      "menu": "Ֆրեշ, Պաղպաղակ, Սուրճ և Թեյ",
      "url": "/restaurant/fresh-shop.html",
      "reyting": "0",
      "hours": "Աշխ. ժամեր10:00 - 22:00"
    },
    {
      "title": "Սեյ Չիզ Գաստրոնոմ",
      "menu": "Գաստրոնոմ",
      "url": "/restaurant/say-cheese.html",
      "reyting": "0",
      "hours": "Աշխ. ժամեր11:00 - 00:00"
    },
    {
      "title": "Պալերմո Պիցցա Բուրգեր և Սենդվիչ, Եվրոպական, Պիցցա",
      "menu": "Բուրգեր և Սենդվիչ, Եվրոպական, Պիցցա",
      "url": "/restaurant/palermo-pizza.html",
      "reyting": "63.4",
      "hours": "Աշխ. ժամեր10:00 - 23:00"
    },
    {
      "title": "Մի Մորենա Բուրգեր և Սենդվիչ, Եվրոպական, Լանչ, Իսպանական",
      "menu": "Բուրգեր և Սենդվիչ, Եվրոպական, Լանչ, Իսպանական",
      "url": "/restaurant/mi-morena.html",
      "reyting": "0",
      "hours": "Աշխ. ժամեր11:00 - 23:30"
    },
    {
      "title": "Ջոս Ասիական, Եվրոպական, Խորոված, քյաբաբ, Մեքսիկական, Պիցցա, Սթեյք, Սուշի, Ճապոնական",
      "menu": "Ասիական, Եվրոպական, Խորոված, քյաբաբ, Մեքսիկական, Պիցցա, Սթեյք, Սուշի, Ճապոնական",
      "url": "/restaurant/jose.html",
      "reyting": "0",
      "hours": "Աշխ. ժամեր12:00 - 00:00"
    },
    {
      "title": "Նարի դիզայն ստուդիո Ծաղիկներ և Փուչիկներ",
      "menu": "Ծաղիկներ և Փուչիկներ",
      "url": "/restaurant/nari-design-studio.html",
      "reyting": "0",
      "hours": "Աշխ. ժամեր10:30 - 21:00"
    },
    {
      "title": "Բեսթ Շաուրմա Բուրգեր և Սենդվիչ, Շաուրմա",
      "menu": "Բուրգեր և Սենդվիչ, Շաուրմա",
      "url": "/restaurant/best-shawarma.html",
      "reyting": "0",
      "hours": "Աշխ. ժամեր09:00 - 00:00"
    },
    {
      "title": "Ջազզվե դեսերտ Քաղցրավենիք, Կարկանդակ",
      "menu": "Քաղցրավենիք, Կարկանդակ",
      "url": "/restaurant/jazzve-dessert.html",
      "reyting": "100",
      "hours": "Աշխ. ժամեր10:00 - 21:30"
    },
    {
      "title": "Քամ Ին Երևան Բուրգեր և Սենդվիչ, Գարեջրատուն և Փաբ, Եվրոպական, Կովկասյան",
      "menu": "Բուրգեր և Սենդվիչ, Գարեջրատուն և Փաբ, Եվրոպական, Կովկասյան",
      "url": "/restaurant/come-in-yerevan.html",
      "reyting": "0",
      "hours": "Աշխ. ժամեր10:00 - 00:00"
    },
    {
      "title": "Հալեպ Ռեստորան Արևելյան, Բուրգեր և Սենդվիչ, Լահմաջո, Խորոված, քյաբաբ",
      "menu": "Արևելյան, Բուրգեր և Սենդվիչ, Լահմաջո, Խորոված, քյաբաբ",
      "url": "/restaurant/halep-restaurant.html",
      "reyting": "0",
      "hours": "Աշխ. ժամեր11:00 - 23:00"
    },
    {
      "title": "Լեդի Ջի Քեյք Քաղցրավենիք",
      "menu": "Քաղցրավենիք",
      "url": "/restaurant/lady-g-cake.html",
      "reyting": "0",
      "hours": "Աշխ. ժամեր09:30 - 21:00"
    },
    {
      "title": "Անտառային Ձայներ Խորոված, քյաբաբ, Պաստա, Սթեյք",
      "menu": "Խորոված, քյաբաբ, Պաստա, Սթեյք",
      "url": "/restaurant/antarayin-dzayner.html",
      "reyting": "0",
      "hours": "Աշխ. ժամեր10:00 - 03:00"
    },
    {
      "title": "Լահմաջո Հաուս Լահմաջո, Լանչ, Պիցցա",
      "menu": "Լահմաջո, Լանչ, Պիցցա",
      "url": "/restaurant/lahmajo-house.html",
      "reyting": "0",
      "hours": "Աշխ. ժամեր10:30 - 22:00"
    },
    {
      "title": "Ֆրեշ ընդ Գո Ֆրեշ, Պաղպաղակ",
      "menu": "Ֆրեշ, Պաղպաղակ",
      "url": "/restaurant/fresh.html",
      "reyting": "100",
      "hours": "Աշխ. ժամեր11:00 - 01:00"
    },
    {
      "title": "Օջախ Ռեստորան Ձուկ և ծովամթերք, Խորոված, քյաբաբ, Հայկական, Կովկասյան",
      "menu": "Ձուկ և ծովամթերք, Խորոված, քյաբաբ, Հայկական, Կովկասյան",
      "url": "/restaurant/ojakh-restaurant.html",
      "reyting": "0",
      "hours": "Աշխ. ժամեր10:00 - 00:00"
    },
    {
      "title": "Ղարաբաղի Ժենգյալով Հաց Արցախյան, Հայկական",
      "menu": "Արցախյան, Հայկական",
      "url": "/restaurant/gharabaghi-jengyalov-hats.html",
      "reyting": "0",
      "hours": "Աշխ. ժամեր08:00 - 19:00"
    },
    {
      "title": "Սթեյշն Բեյքրի Հոթ Դոգ, Բուրգեր և Սենդվիչ, Լահմաջո, Շաուրմա, Պիցցա, Արաբական",
      "menu": "Հոթ Դոգ, Բուրգեր և Սենդվիչ, Լահմաջո, Շաուրմա, Պիցցա, Արաբական",
      "url": "/restaurant/station-bakery.html",
      "reyting": "0",
      "hours": "Աշխ. ժամեր10:00 - 20:30"
    },
    {
      "title": "Օլիմպ Սպորտ Սնունդ Էկո և Օրգանական սնունդ",
      "menu": "Էկո և Օրգանական սնունդ",
      "url": "/restaurant/olimp-sport.html",
      "reyting": "0",
      "hours": "Աշխ. ժամեր13:00 - 21:00"
    },
    {
      "title": "Բրանչ Բուրգեր և Սենդվիչ",
      "menu": "Բուրգեր և Սենդվիչ",
      "url": "/restaurant/branch.html",
      "reyting": "0",
      "hours": "Աշխ. ժամեր09:00 - 17:00"
    },
    {
      "title": "Սմայլ Ծաղիկներ և Փուչիկներ",
      "menu": "Ծաղիկներ և Փուչիկներ",
      "url": "/restaurant/smile.html",
      "reyting": "0",
      "hours": "Աշխ. ժամեր11:30 - 19:00"
    },
    {
      "title": "Կալաբոկ Քեյք Քաղցրավենիք",
      "menu": "Քաղցրավենիք",
      "url": "/restaurant/kalabok-cake.html",
      "reyting": "70",
      "hours": "Աշխ. ժամեր09:00 - 20:00"
    },
    {
      "title": "Թի Արթ Սուրճ և Թեյ",
      "menu": "Սուրճ և Թեյ",
      "url": "/restaurant/tea-art.html",
      "reyting": "0",
      "hours": "Աշխ. ժամեր10:00 - 21:00"
    },
    {
      "title": "Կաֆե Ին Սուրճ և Թեյ",
      "menu": "Սուրճ և Թեյ",
      "url": "/restaurant/cafe-in.html",
      "reyting": "0",
      "hours": "Աշխ. ժամեր15:30 - 00:00"
    },
    {
      "title": "Շիրազի Հացատուն Խորոված, քյաբաբ, Հայկական",
      "menu": "Խորոված, քյաբաբ, Հայկական",
      "url": "/restaurant/shirazi-hatsatun.html",
      "reyting": "0",
      "hours": "Աշխ. ժամեր10:00 - 23:00"
    },
    {
      "title": "Մարիլա Սյունիքի Բարիքներ Գաստրոնոմ, Թարմ միս և մսամթերք",
      "menu": "Գաստրոնոմ, Թարմ միս և մսամթերք",
      "url": "/restaurant/marila-syuniqi-bariqner.html",
      "reyting": "0",
      "hours": "Աշխ. ժամեր09:00 - 20:00"
    },
    {
      "title": "Կոկո Ֆիորի Ծաղիկներ և Փուչիկներ",
      "menu": "Ծաղիկներ և Փուչիկներ",
      "url": "/restaurant/coco-fiori.html",
      "reyting": "0",
      "hours": "Աշխ. ժամեր10:00 - 23:00"
    },
    {
      "title": "Կայարանի Կարկանդակներ Կարկանդակ",
      "menu": "Կարկանդակ",
      "url": "/restaurant/kayarani-karkandakner.html",
      "reyting": "0",
      "hours": "Աշխ. ժամեր07:00 - 16:00"
    },
    {
      "title": "Էգոիստ Լավ առաջարկ, Նվեր Քարտ",
      "menu": "Լավ առաջարկ, Նվեր Քարտ",
      "url": "/restaurant/egoiste-gift-card.html",
      "reyting": "0",
      "hours": "Աշխ. ժամեր11:00 - 20:00"
    },
    {
      "title": "Խմորի Աշխարհ Քաղցրավենիք, Հացաբուլկեղեն, Կարկանդակ",
      "menu": "Քաղցրավենիք, Հացաբուլկեղեն, Կարկանդակ",
      "url": "/restaurant/world-of-dough.html",
      "reyting": "100",
      "hours": "Աշխ. ժամեր08:00 - 20:30"
    },
    {
      "title": "Բեկոն Մսամթերք Թարմ միս և մսամթերք",
      "menu": "Թարմ միս և մսամթերք",
      "url": "/restaurant/bacon-product.html",
      "reyting": "0",
      "hours": "Աշխ. ժամեր09:00 - 19:00"
    },
    {
      "title": "Դը Քորներ Բուրգեր և Սենդվիչ, Պաստա, Պիցցա",
      "menu": "Բուրգեր և Սենդվիչ, Պաստա, Պիցցա",
      "url": "/restaurant/the-corner.html",
      "reyting": "0",
      "hours": "Աշխ. ժամեր09:00 - 00:00"
    },
    {
      "title": "Աթենք Թարմ միս և մսամթերք, Կիսաֆաբրիկատներ",
      "menu": "Թարմ միս և մսամթերք, Կիսաֆաբրիկատներ",
      "url": "/restaurant/atenk.html",
      "reyting": "60",
      "hours": "Աշխ. ժամեր10:00 - 20:00"
    },
    {
      "title": "Աննե-Մոնա Ծաղիկներ և Փուչիկներ",
      "menu": "Ծաղիկներ և Փուչիկներ",
      "url": "/restaurant/anne-mona.html",
      "reyting": "0",
      "hours": "Աշխ. ժամեր10:30 - 21:00"
    },
    {
      "title": "Քափքեյք Քաղցրավենիք",
      "menu": "Քաղցրավենիք",
      "url": "/restaurant/cupcake.html",
      "reyting": "0",
      "hours": "Աշխ. ժամեր09:00 - 19:00"
    },
    {
      "title": "Ուրբան Շաուրմա Խորոված, քյաբաբ, Շաուրմա",
      "menu": "Խորոված, քյաբաբ, Շաուրմա",
      "url": "/restaurant/urban-shawarma.html",
      "reyting": "0",
      "hours": "Աշխ. ժամեր10:00 - 22:00"
    },
    {
      "title": "Ռենա Խորոված, քյաբաբ, Հայկական, Պիցցա",
      "menu": "Խորոված, քյաբաբ, Հայկական, Պիցցա",
      "url": "/restaurant/rena-restaurant.html",
      "reyting": "0",
      "hours": "Աշխ. ժամեր10:00 - 00:00"
    },
    {
      "title": "Շաուրմա Խչոյի մոտ Խորոված, քյաբաբ, Շաուրմա",
      "menu": "Խորոված, քյաբաբ, Շաուրմա",
      "url": "/restaurant/shawarma-khchoyi-mot.html",
      "reyting": "0",
      "hours": "Աշխ. ժամեր10:00 - 00:00"
    },
    {
      "title": "Փինկ Բերրի Քաղցրավենիք, Ֆրեշ, Պաղպաղակ, Սուրճ և Թեյ",
      "menu": "Քաղցրավենիք, Ֆրեշ, Պաղպաղակ, Սուրճ և Թեյ",
      "url": "/restaurant/pink-berry.html",
      "reyting": "0",
      "hours": "Աշխ. ժամեր11:00 - 22:00"
    },
    {
      "title": "Բայազետ Թարմ միս և մսամթերք",
      "menu": "Թարմ միս և մսամթերք",
      "url": "/restaurant/bayazet.html",
      "reyting": "0",
      "hours": "Աշխ. ժամեր09:00 - 18:00"
    },
    {
      "title": "Պիոներ Բրազիլական Ռեստորան Բրազիլական, Լանչ",
      "menu": "Բրազիլական, Լանչ",
      "url": "/restaurant/pioneer-brazilian-restaurant.html",
      "reyting": "0",
      "hours": "Աշխ. ժամեր12:00 - 00:00"
    },
    {
      "title": "Բանդիվան Կաթ Գաստրոնոմ",
      "menu": "Գաստրոնոմ",
      "url": "/restaurant/bandivan-kat.html",
      "reyting": "0",
      "hours": "Աշխ. ժամեր09:00 - 19:00"
    },
    {
      "title": "Միստի Ֆյումս Նարգիլե և Սիգար",
      "menu": "Նարգիլե և Սիգար",
      "url": "/restaurant/misty-fumes.html",
      "reyting": "0",
      "hours": "Աշխ. ժամեր11:00 - 21:00"
    },
    {
      "title": "Քոֆիշոփ Քոմփնի Քաղցրավենիք, Եվրոպական, Սուրճ և Թեյ",
      "menu": "Քաղցրավենիք, Եվրոպական, Սուրճ և Թեյ",
      "url": "/restaurant/coffeeshop.html",
      "reyting": "0",
      "hours": "Աշխ. ժամեր08:30 - 02:00"
    },
    {
      "title": "Ֆրեսկո Պիցցա  Իտալական, Կարկանդակ, Պիցցա",
      "menu": "Իտալական, Կարկանդակ, Պիցցա",
      "url": "/restaurant/fresco-pizza.html",
      "reyting": "0",
      "hours": "Աշխ. ժամեր10:00 - 22:00"
    },
    {
      "title": "Վահագնի Ռեստորան Խորոված, քյաբաբ, Պաստա, Պիցցա",
      "menu": "Խորոված, քյաբաբ, Պաստա, Պիցցա",
      "url": "/restaurant/the-vahakni-restaurant.html",
      "reyting": "0",
      "hours": "Աշխ. ժամեր15:00 - 21:00"
    },
    {
      "title": "Ավենյու Դե Ռոզ Ծաղիկներ և Փուչիկներ",
      "menu": "Ծաղիկներ և Փուչիկներ",
      "url": "/restaurant/avenue-de-rose.html",
      "reyting": "100",
      "hours": "Աշխ. ժամեր09:30 - 20:00"
    },
    {
      "title": "Մարկո Պոլո Եվրոպական, Իտալական, Պիցցա",
      "menu": "Եվրոպական, Իտալական, Պիցցա",
      "url": "/restaurant/marco-polo.html",
      "reyting": "73.4",
      "hours": "Աշխ. ժամեր10:00 - 01:00"
    },
    {
      "title": "Դը Ալկո Շոփ Ըմպելիքներ և Խորտիկներ, Գարեջրատուն և Փաբ, Գարեջուր, Խեցգետին",
      "menu": "Ըմպելիքներ և Խորտիկներ, Գարեջրատուն և Փաբ, Գարեջուր, Խեցգետին",
      "url": "/restaurant/the-alco-shop.html",
      "reyting": "0",
      "hours": "Աշխ. ժամեր11:00 - 19:00"
    },
    {
      "title": "Գնդիկ Բոքոնիկ Լահմաջո Լահմաջո",
      "menu": "Լահմաջո",
      "url": "/restaurant/gndik-boqonik-lahmajo.html",
      "reyting": "100",
      "hours": "24 ժամ"
    },
    {
      "title": "Ռեստորան Տոսպիա Խորոված, քյաբաբ, Հայկական",
      "menu": "Խորոված, քյաբաբ, Հայկական",
      "url": "/restaurant/tospia-restaurant.html",
      "reyting": "0",
      "hours": "Աշխ. ժամեր11:00 - 23:00"
    },
    {
      "title": "Բրաբիոն Այգեգործական Կենտրոն Ծաղիկներ և Փուչիկներ",
      "menu": "Ծաղիկներ և Փուչիկներ",
      "url": "/restaurant/brabion-garden-center.html",
      "reyting": "0",
      "hours": "Աշխ. ժամեր10:00 - 18:00"
    },
    {
      "title": "Պիցցա N1 Եվրոպական, Իտալական, Պիցցա",
      "menu": "Եվրոպական, Իտալական, Պիցցա",
      "url": "/restaurant/pizza-n1.html",
      "reyting": "100",
      "hours": "Աշխ. ժամեր11:00 - 22:45"
    },
    {
      "title": "Գաստրոֆեստ ԱԿՕ Սուշի Գաստրոֆեստ",
      "menu": "Գաստրոֆեստ",
      "url": "/restaurant/gastrofest-ako-sushi.html",
      "reyting": "100",
      "hours": "24 ժամ"
    },
    {
      "title": "Գաստրոֆեստ Էլ Գարդեն Գաստրոֆեստ",
      "menu": "Գաստրոֆեստ",
      "url": "/restaurant/gastrofest-el-garden.html",
      "reyting": "0",
      "hours": "Աշխ. ժամեր11:00 - 23:00"
    },
    {
      "title": "Պիցցա Նինո Իտալական, Լանչ, Պաստա, Պիցցա",
      "menu": "Իտալական, Լանչ, Պաստա, Պիցցա",
      "url": "/restaurant/pizza-nino.html",
      "reyting": "0",
      "hours": "Աշխ. ժամեր12:00 - 00:00"
    },
    {
      "title": "Գաստրոֆեստ Պեկին Գաստրոֆեստ",
      "menu": "Գաստրոֆեստ",
      "url": "/restaurant/gastrofest-beijing.html",
      "reyting": "60",
      "hours": "Աշխ. ժամեր11:00 - 23:15"
    },
    {
      "title": "Գաստրոֆեստ Ջոս Գաստրոֆեստ",
      "menu": "Գաստրոֆեստ",
      "url": "/restaurant/gastrofest-jose.html",
      "reyting": "0",
      "hours": "Աշխ. ժամեր12:00 - 23:00"
    },
    {
      "title": "Գաստրոֆեստ Վասաբի Գաստրոֆեստ",
      "menu": "Գաստրոֆեստ",
      "url": "/restaurant/gastrofest-wasabi.html",
      "reyting": "0",
      "hours": "Աշխ. ժամեր11:00 - 03:00"
    },
    {
      "title": "Գաստոֆեստ Վոկ Ընդ Ռոլ Գաստրոֆեստ",
      "menu": "Գաստրոֆեստ",
      "url": "/restaurant/gastrofest-wok-and-roll.html",
      "reyting": "0",
      "hours": "Աշխ. ժամեր11:00 - 23:15"
    },
    {
      "title": "Nvirir.net Ծաղիկներ և Փուչիկներ",
      "menu": "Ծաղիկներ և Փուչիկներ",
      "url": "/restaurant/nvirirnet.html",
      "reyting": "0",
      "hours": "Աշխ. ժամեր10:00 - 21:00"
    },
    {
      "title": "Վինո & Վինո Ըմպելիքներ և Խորտիկներ",
      "menu": "Ըմպելիքներ և Խորտիկներ",
      "url": "/restaurant/vino-and-vino.html",
      "reyting": "0",
      "hours": "Աշխ. ժամեր10:00 - 20:00"
    },
    {
      "title": "Մայ Լանչ Լանչ, Հայկական",
      "menu": "Լանչ, Հայկական",
      "url": "/restaurant/my-lunch.html",
      "reyting": "77.6",
      "hours": "Աշխ. ժամեր09:00 - 18:00"
    },
    {
      "title": "Սաթենիկ Հրուշակեղեն Քաղցրավենիք, Արտադրված է Հայաստանում, Հացաբուլկեղեն",
      "menu": "Քաղցրավենիք, Արտադրված է Հայաստանում, Հացաբուլկեղեն",
      "url": "/restaurant/satenik-pastry.html",
      "reyting": "0",
      "hours": "Աշխ. ժամեր07:30 - 18:30"
    },
    {
      "title": "Կաբոն սրճարան Խորոված, քյաբաբ, Պիցցա, Վրացական",
      "menu": "Խորոված, քյաբաբ, Պիցցա, Վրացական",
      "url": "/restaurant/kabon-cafe.html",
      "reyting": "0",
      "hours": "Աշխ. ժամեր10:00 - 23:30"
    },
    {
      "title": "Ռակո Կոկտեյլ Ըմպելիքներ և Խորտիկներ",
      "menu": "Ըմպելիքներ և Խորտիկներ",
      "url": "/restaurant/rako-cocktail.html",
      "reyting": "0",
      "hours": "Աշխ. ժամեր10:00 - 00:00"
    },
    {
      "title": "Լա Ֆլոր Ծաղիկներ և Փուչիկներ",
      "menu": "Ծաղիկներ և Փուչիկներ",
      "url": "/restaurant/la-flor.html",
      "reyting": "0",
      "hours": "Աշխ. ժամեր09:30 - 22:00"
    },
    {
      "title": "ԲիոԳեն Էկո և Օրգանական սնունդ",
      "menu": "Էկո և Օրգանական սնունդ",
      "url": "/restaurant/biogen.html",
      "reyting": "100",
      "hours": "Աշխ. ժամեր10:00 - 18:00"
    },
    {
      "title": "ԽԱՉԱՊՈՒՐԻ+ Արցախյան, Լահմաջո, Կարկանդակ, Վրացական",
      "menu": "Արցախյան, Լահմաջո, Կարկանդակ, Վրացական",
      "url": "/restaurant/khachapuri.html",
      "reyting": "0",
      "hours": "Աշխ. ժամեր09:00 - 21:00"
    },
    {
      "title": "Իմպրեսսո Բուրգեր և Սենդվիչ, Սուրճ և Թեյ, Պաստա",
      "menu": "Բուրգեր և Սենդվիչ, Սուրճ և Թեյ, Պաստա",
      "url": "/restaurant/impresso.html",
      "reyting": "0",
      "hours": "Աշխ. ժամեր08:00 - 00:00"
    },
    {
      "title": "Յագեր Ըմպելիքներ և Խորտիկներ, Գարեջուր, Խեցգետին",
      "menu": "Ըմպելիքներ և Խորտիկներ, Գարեջուր, Խեցգետին",
      "url": "/restaurant/jager.html",
      "reyting": "0",
      "hours": "Աշխ. ժամեր10:00 - 01:00"
    },
    {
      "title": "Բիգ Բուք Բուրգեր և Սենդվիչ, Խորոված, քյաբաբ, Շաուրմա, Պիցցա",
      "menu": "Բուրգեր և Սենդվիչ, Խորոված, քյաբաբ, Շաուրմա, Պիցցա",
      "url": "/restaurant/big-book.html",
      "reyting": "0",
      "hours": "Աշխ. ժամեր09:00 - 20:00"
    },
    {
      "title": "Վեգա Պիցցերիա Բուրգեր և Սենդվիչ, Լանչ, Պաստա, Պիցցա",
      "menu": "Բուրգեր և Սենդվիչ, Լանչ, Պաստա, Պիցցա",
      "url": "/restaurant/vega-pizzeria.html",
      "reyting": "0",
      "hours": "Աշխ. ժամեր10:00 - 20:00"
    },
    {
      "title": "Քինգ Գարդեն Ձուկ և ծովամթերք, Եվրոպական, Խորոված, քյաբաբ, Հայկական, Պաստա, Պիցցա",
      "menu": "Ձուկ և ծովամթերք, Եվրոպական, Խորոված, քյաբաբ, Հայկական, Պաստա, Պիցցա",
      "url": "/restaurant/king-garden.html",
      "reyting": "0",
      "hours": "Աշխ. ժամեր11:00 - 22:00"
    },
    {
      "title": "Ածուխ Թոնրատուն Բուրգեր և Սենդվիչ, Խորոված, քյաբաբ, Լանչ, Հայկական, Շաուրմա",
      "menu": "Բուրգեր և Սենդվիչ, Խորոված, քյաբաբ, Լանչ, Հայկական, Շաուրմա",
      "url": "/restaurant/atsukh-tonratun.html",
      "reyting": "73.4",
      "hours": "Աշխ. ժամեր11:00 - 22:00"
    },
    {
      "title": "Հին Զանգեզուր Լավ առաջարկ, Լահմաջո, Խորոված, քյաբաբ, Լանչ, Հայկական, Շաուրմա",
      "menu": "Լավ առաջարկ, Լահմաջո, Խորոված, քյաբաբ, Լանչ, Հայկական, Շաուրմա",
      "url": "/restaurant/old-zangezour.html",
      "reyting": "100",
      "hours": "Աշխ. ժամեր10:00 - 23:00"
    },
    {
      "title": "Լիբան Ռեստորան Լիբանանյան, Արևելյան, Խորոված, քյաբաբ, Միջերկրածովյան",
      "menu": "Լիբանանյան, Արևելյան, Խորոված, քյաբաբ, Միջերկրածովյան",
      "url": "/restaurant/liban-restaurant.html",
      "reyting": "0",
      "hours": "Աշխ. ժամեր11:00 - 23:00"
    },
    {
      "title": "Էվն Գիֆթս Քաղցրավենիք, Ծաղիկներ և Փուչիկներ",
      "menu": "Քաղցրավենիք, Ծաղիկներ և Փուչիկներ",
      "url": "/restaurant/evn-gifts.html",
      "reyting": "0",
      "hours": "Աշխ. ժամեր10:00 - 19:00"
    },
    {
      "title": "Ջասթ Կաֆե Բուրգեր և Սենդվիչ, Եվրոպական, Նախաճաշ, Պաստա",
      "menu": "Բուրգեր և Սենդվիչ, Եվրոպական, Նախաճաշ, Պաստա",
      "url": "/restaurant/just-cafe.html",
      "reyting": "0",
      "hours": "Աշխ. ժամեր10:00 - 00:00"
    },
    {
      "title": "Սքայ Հոթ Դոգ Հոթ Դոգ, Ամերիկյան",
      "menu": "Հոթ Դոգ, Ամերիկյան",
      "url": "/restaurant/sky-hot-dog.html",
      "reyting": "0",
      "hours": "Աշխ. ժամեր10:00 - 23:00"
    },
    {
      "title": "Ֆաբեր Ժե սրճարան Քաղցրավենիք, Եվրոպական",
      "menu": "Քաղցրավենիք, Եվրոպական",
      "url": "/restaurant/faberge-cafe-boutique.html",
      "reyting": "96.6",
      "hours": "Աշխ. ժամեր11:00 - 22:45"
    },
    {
      "title": "Կոստիս Քեյք Քաղցրավենիք, Հունական",
      "menu": "Քաղցրավենիք, Հունական",
      "url": "/restaurant/kostis-cake.html",
      "reyting": "0",
      "hours": "Աշխ. ժամեր08:00 - 23:00"
    },
    {
      "title": "Երևանի Խաչապուրի հացատուն Արցախյան, Բուրգեր և Սենդվիչ, Խորոված, քյաբաբ, Հավի գրիլ, Նախաճաշ, Շաուրմա",
      "menu": "Արցախյան, Բուրգեր և Սենդվիչ, Խորոված, քյաբաբ, Հավի գրիլ, Նախաճաշ, Շաուրմա",
      "url": "/restaurant/yerevani-khachapuri-hatsatun.html",
      "reyting": "100",
      "hours": "Աշխ. ժամեր09:00 - 21:00"
    },
    {
      "title": "Ֆիլոմենա Ծաղիկներ և Փուչիկներ",
      "menu": "Ծաղիկներ և Փուչիկներ",
      "url": "/restaurant/filomena-flowers.html",
      "reyting": "0",
      "hours": "Աշխ. ժամեր09:30 - 00:00"
    },
    {
      "title": "Բաստուրմա Խանութ Սրճարան Բուրգեր և Սենդվիչ",
      "menu": "Բուրգեր և Սենդվիչ",
      "url": "/restaurant/basturma.html",
      "reyting": "0",
      "hours": "Աշխ. ժամեր10:00 - 22:00"
    },
    {
      "title": "Նյու Յորք Բուրգեր և Սենդվիչ, Եվրոպական, Պիցցա",
      "menu": "Բուրգեր և Սենդվիչ, Եվրոպական, Պիցցա",
      "url": "/restaurant/new-york.html",
      "reyting": "0",
      "hours": "Աշխ. ժամեր10:00 - 23:00"
    },
    {
      "title": "Տորնադո Շաուրմա Հոթ Դոգ, Լահմաջո, Խորոված, քյաբաբ, Կարկանդակ, Շաուրմա",
      "menu": "Հոթ Դոգ, Լահմաջո, Խորոված, քյաբաբ, Կարկանդակ, Շաուրմա",
      "url": "/restaurant/tornado-shawarma.html",
      "reyting": "0",
      "hours": "Աշխ. ժամեր09:30 - 21:00"
    },
    {
      "title": "Անջելո Քաղցրավենիք, Կիսաֆաբրիկատներ, Կարկանդակ",
      "menu": "Քաղցրավենիք, Կիսաֆաբրիկատներ, Կարկանդակ",
      "url": "/restaurant/angelo.html",
      "reyting": "0",
      "hours": "Աշխ. ժամեր09:00 - 23:00"
    },
    {
      "title": "Քարավան Արևելյան, Խորոված, քյաբաբ, Վրացական",
      "menu": "Արևելյան, Խորոված, քյաբաբ, Վրացական",
      "url": "/restaurant/qaravan.html",
      "reyting": "0",
      "hours": "Աշխ. ժամեր10:00 - 23:00"
    },
    {
      "title": "Ծղոտներ Ձուկ և ծովամթերք, Բուրգեր և Սենդվիչ, Խորոված, քյաբաբ, Հայկական",
      "menu": "Ձուկ և ծովամթերք, Բուրգեր և Սենդվիչ, Խորոված, քյաբաբ, Հայկական",
      "url": "/restaurant/tsghotner.html",
      "reyting": "70",
      "hours": "24 ժամ"
    },
    {
      "title": "Էնոտեկա  Ըմպելիքներ և Խորտիկներ",
      "menu": "Ըմպելիքներ և Խորտիկներ",
      "url": "/restaurant/enoteca.html",
      "reyting": "0",
      "hours": "Աշխ. ժամեր11:00 - 00:00"
    },
    {
      "title": "Արմ Ֆուդ Բիստրո Հոթ Դոգ, Բուրգեր և Սենդվիչ, Շաուրմա",
      "menu": "Հոթ Դոգ, Բուրգեր և Սենդվիչ, Շաուրմա",
      "url": "/restaurant/arm-food-bistro.html",
      "reyting": "0",
      "hours": "Աշխ. ժամեր10:00 - 21:00"
    },
    {
      "title": "Բարել Ռեստորան Գարեջրատուն և Փաբ, Խորոված, քյաբաբ",
      "menu": "Գարեջրատուն և Փաբ, Խորոված, քյաբաբ",
      "url": "/restaurant/barrel-beer-house.html",
      "reyting": "0",
      "hours": "Աշխ. ժամեր11:00 - 00:00"
    },
    {
      "title": "Պանդոկ Հին Էրիվան Խորոված, քյաբաբ, Լանչ, Հայկական",
      "menu": "Խորոված, քյաբաբ, Լանչ, Հայկական",
      "url": "/restaurant/pandok-old-erivan.html",
      "reyting": "0",
      "hours": "Աշխ. ժամեր10:00 - 02:00"
    },
    {
      "title": "Կաֆե Բլան Բուրգեր և Սենդվիչ, Եվրոպական, Սթեյք, Ֆրանսիական",
      "menu": "Բուրգեր և Սենդվիչ, Եվրոպական, Սթեյք, Ֆրանսիական",
      "url": "/restaurant/cafe-blanc.html",
      "reyting": "0",
      "hours": "Աշխ. ժամեր10:00 - 00:00"
    },
    {
      "title": "Ուրարտու Խորոված, քյաբաբ, Հայկական",
      "menu": "Խորոված, քյաբաբ, Հայկական",
      "url": "/restaurant/urartu.html",
      "reyting": "0",
      "hours": "Աշխ. ժամեր11:00 - 22:30"
    },
    {
      "title": "Սանտա Ֆամիլիա Գաստրոնոմ, Թարմ միս և մսամթերք, Կիսաֆաբրիկատներ",
      "menu": "Գաստրոնոմ, Թարմ միս և մսամթերք, Կիսաֆաբրիկատներ",
      "url": "/restaurant/santa-familia.html",
      "reyting": "0",
      "hours": "Աշխ. ժամեր11:00 - 18:00"
    },
    {
      "title": "Տուն Լահմաջո Լահմաջո, Խորոված, քյաբաբ, Հայկական, Վրացական",
      "menu": "Լահմաջո, Խորոված, քյաբաբ, Հայկական, Վրացական",
      "url": "/restaurant/lahmajo-tun.html",
      "reyting": "0",
      "hours": "Աշխ. ժամեր11:00 - 00:00"
    },
    {
      "title": "Շե Հրաչ Արևելյան",
      "menu": "Արևելյան",
      "url": "/restaurant/chez-hratch.html",
      "reyting": "0",
      "hours": "Աշխ. ժամեր12:00 - 00:00"
    },
    {
      "title": "Յամ-Յամ Դոնաթս Քաղցրավենիք",
      "menu": "Քաղցրավենիք",
      "url": "/restaurant/yum-yum-donuts-yerevan.html",
      "reyting": "100",
      "hours": "Աշխ. ժամեր09:30 - 22:00"
    },
    {
      "title": "ԻՆԳՐԵԴԻԵՆՏ Քաղցրավենիք, Էկո և Օրգանական սնունդ, Սթեյք",
      "menu": "Քաղցրավենիք, Էկո և Օրգանական սնունդ, Սթեյք",
      "url": "/restaurant/ingredient.html",
      "reyting": "100",
      "hours": "Աշխ. ժամեր11:00 - 22:00"
    },
    {
      "title": "Քոզի Է Լա Վիտա Բուրգեր և Սենդվիչ, Հայկական, Պաստա, Սթեյք",
      "menu": "Բուրգեր և Սենդվիչ, Հայկական, Պաստա, Սթեյք",
      "url": "/restaurant/cosi-e-la-vita.html",
      "reyting": "0",
      "hours": "Աշխ. ժամեր11:00 - 00:00"
    },
    {
      "title": "Տիֆոզի Լավ առաջարկ, Բուրգեր և Սենդվիչ, Եվրոպական, Իտալական, Պիցցա",
      "menu": "Լավ առաջարկ, Բուրգեր և Սենդվիչ, Եվրոպական, Իտալական, Պիցցա",
      "url": "/restaurant/tifosi.html",
      "reyting": "0",
      "hours": "Աշխ. ժամեր13:00 - 23:30"
    },
    {
      "title": "Քարավանսարա Լահմաջո",
      "menu": "Լահմաջո",
      "url": "/restaurant/qaravansara.html",
      "reyting": "0",
      "hours": "Աշխ. ժամեր11:00 - 20:00"
    },
    {
      "title": "ՋԻՋԻՍ Պիցցա Լավ առաջարկ, Բուրգեր և Սենդվիչ, Եվրոպական, Իտալական, Լահմաջո, Մեքսիկական, Շաուրմա, Պիցցա",
      "menu": "Լավ առաջարկ, Բուրգեր և Սենդվիչ, Եվրոպական, Իտալական, Լահմաջո, Մեքսիկական, Շաուրմա, Պիցցա",
      "url": "/restaurant/ggs-pizza.html",
      "reyting": "100",
      "hours": "Աշխ. ժամեր11:00 - 20:00"
    },
    {
      "title": "Բլեք Բուլ Սթեյք Հաուս և Բար Լավ առաջարկ, Բուրգեր և Սենդվիչ, Եվրոպական, Պաստա, Սթեյք",
      "menu": "Լավ առաջարկ, Բուրգեր և Սենդվիչ, Եվրոպական, Պաստա, Սթեյք",
      "url": "/restaurant/black-bull-steak-house-and-bar.html",
      "reyting": "95",
      "hours": "Աշխ. ժամեր10:00 - 00:00"
    },
    {
      "title": "Աթենիկա Հունական Շաուրմա Բուրգեր և Սենդվիչ, Հունական, Շաուրմա, Պիցցա",
      "menu": "Բուրգեր և Սենդվիչ, Հունական, Շաուրմա, Պիցցա",
      "url": "/restaurant/athenica-greek-shawarma.html",
      "reyting": "0",
      "hours": "Աշխ. ժամեր10:30 - 23:30"
    },
    {
      "title": "Ռոսսի Քաղցրավենիք",
      "menu": "Քաղցրավենիք",
      "url": "/restaurant/rossi-dessert-komitas.html",
      "reyting": "100",
      "hours": "Աշխ. ժամեր10:00 - 20:00"
    },
    {
      "title": "Նոր Քեսաբ Արևելյան, Լահմաջո, Խորոված, քյաբաբ",
      "menu": "Արևելյան, Լահմաջո, Խորոված, քյաբաբ",
      "url": "/restaurant/new-kessab.html",
      "reyting": "0",
      "hours": "Աշխ. ժամեր10:00 - 21:00"
    },
    {
      "title": "Ավենյու դե Ֆլյող Ծաղիկներ և Փուչիկներ",
      "menu": "Ծաղիկներ և Փուչիկներ",
      "url": "/restaurant/avenu-des-fleurs.html",
      "reyting": "0",
      "hours": "24 ժամ"
    },
    {
      "title": "Հալդի.Կո Սուրճ կամ Թեյ Սուրճ և Թեյ",
      "menu": "Սուրճ և Թեյ",
      "url": "/restaurant/haldico-coffee-or-tea.html",
      "reyting": "0",
      "hours": "Աշխ. ժամեր10:00 - 22:00"
    },
    {
      "title": "Հակեր-Փշոր Գրիլ Հաուս Գարեջրատուն և Փաբ, Եվրոպական, Սթեյք",
      "menu": "Գարեջրատուն և Փաբ, Եվրոպական, Սթեյք",
      "url": "/restaurant/hacker-pschorr-grill-house.html",
      "reyting": "0",
      "hours": "Աշխ. ժամեր11:00 - 00:00"
    },
    {
      "title": "Կրեպ Քաղցրավենիք",
      "menu": "Քաղցրավենիք",
      "url": "/restaurant/crepe.html",
      "reyting": "80",
      "hours": "Աշխ. ժամեր10:00 - 21:45"
    },
    {
      "title": "Կովկասյան Խոհանոց Խորոված, քյաբաբ, Հայկական, Վրացական",
      "menu": "Խորոված, քյաբաբ, Հայկական, Վրացական",
      "url": "/restaurant/caucasian-cuisine.html",
      "reyting": "0",
      "hours": "Աշխ. ժամեր10:00 - 00:00"
    },
    {
      "title": "Բաֆըլո Գրիլ Բար Բուրգեր և Սենդվիչ, Գարեջրատուն և Փաբ, Եվրոպական, Պաստա, Պիցցա, Սթեյք",
      "menu": "Բուրգեր և Սենդվիչ, Գարեջրատուն և Փաբ, Եվրոպական, Պաստա, Պիցցա, Սթեյք",
      "url": "/restaurant/buffalo-grill-bar.html",
      "reyting": "0",
      "hours": "Աշխ. ժամեր10:00 - 23:00"
    },
    {
      "title": "Քոզի Կարկանդակ",
      "menu": "Կարկանդակ",
      "url": "/restaurant/cozy.html",
      "reyting": "0",
      "hours": "Աշխ. ժամեր10:00 - 22:00"
    },
    {
      "title": "Բալատուն Քաղցրավենիք, Բուրգեր և Սենդվիչ, Հացաբուլկեղեն",
      "menu": "Քաղցրավենիք, Բուրգեր և Սենդվիչ, Հացաբուլկեղեն",
      "url": "/restaurant/balatoon-cherry-house.html",
      "reyting": "10",
      "hours": "Աշխ. ժամեր10:00 - 00:00"
    },
    {
      "title": "Լայֆ Սրճարան Էկո և Օրգանական սնունդ, Բուրգեր և Սենդվիչ, Եվրոպական, Նախաճաշ, Պաստա, Պիցցա, Սթեյք",
      "menu": "Էկո և Օրգանական սնունդ, Բուրգեր և Սենդվիչ, Եվրոպական, Նախաճաշ, Պաստա, Պիցցա, Սթեյք",
      "url": "/restaurant/life-cafe.html",
      "reyting": "0",
      "hours": "Աշխ. ժամեր10:00 - 01:00"
    },
    {
      "title": "Լահմաջո Խեցգետին, Բուրգեր և Սենդվիչ, Լահմաջո, Պիցցա, Գարեջուր, Խեցգետին",
      "menu": "Խեցգետին, Բուրգեր և Սենդվիչ, Լահմաջո, Պիցցա, Գարեջուր, Խեցգետին",
      "url": "/restaurant/lahmajun.html",
      "reyting": "100",
      "hours": "Աշխ. ժամեր10:00 - 22:30"
    },
    {
      "title": "Piva.am Խեցգետին, Գարեջրատուն և Փաբ, Գարեջուր, Խեցգետին",
      "menu": "Խեցգետին, Գարեջրատուն և Փաբ, Գարեջուր, Խեցգետին",
      "url": "/restaurant/pivaam.html",
      "reyting": "60",
      "hours": "Աշխ. ժամեր10:00 - 01:00"
    },
    {
      "title": "Մերսի Գաստրո սրճարան Բուրգեր և Սենդվիչ, Եվրոպական, Պաստա, Սթեյք",
      "menu": "Բուրգեր և Սենդվիչ, Եվրոպական, Պաստա, Սթեյք",
      "url": "/restaurant/merci-gastro-cafe.html",
      "reyting": "73.4",
      "hours": "Աշխ. ժամեր10:00 - 00:00"
    },
    {
      "title": "Մոնո Քաղցրավենիք, Հացաբուլկեղեն",
      "menu": "Քաղցրավենիք, Հացաբուլկեղեն",
      "url": "/restaurant/mono.html",
      "reyting": "96",
      "hours": "Աշխ. ժամեր10:00 - 21:00"
    },
    {
      "title": "Ժակո Նարգիլե Նարգիլե և Սիգար",
      "menu": "Նարգիլե և Սիգար",
      "url": "/restaurant/jaco-hookah.html",
      "reyting": "0",
      "hours": "Աշխ. ժամեր11:00 - 23:30"
    },
    {
      "title": "Աբու Հակոբ ռեստորան Արևելյան, Լահմաջո, Խորոված, քյաբաբ",
      "menu": "Արևելյան, Լահմաջո, Խորոված, քյաբաբ",
      "url": "/restaurant/abu-hagop-restaurant.html",
      "reyting": "0",
      "hours": "Աշխ. ժամեր12:00 - 22:30"
    },
    {
      "title": "Վանիլլա Քեյքս Քաղցրավենիք",
      "menu": "Քաղցրավենիք",
      "url": "/restaurant/vanilla-cakes.html",
      "reyting": "0",
      "hours": "Աշխ. ժամեր09:00 - 20:00"
    },
    {
      "title": "ԼաՍանի Քաղցրավենիք, Լավ առաջարկ, Ծաղիկներ և Փուչիկներ",
      "menu": "Քաղցրավենիք, Լավ առաջարկ, Ծաղիկներ և Փուչիկներ",
      "url": "/restaurant/lasany.html",
      "reyting": "66.6",
      "hours": "Աշխ. ժամեր09:00 - 21:00"
    },
    {
      "title": "Սորրիզո Ֆրեշ, Պաղպաղակ",
      "menu": "Ֆրեշ, Պաղպաղակ",
      "url": "/restaurant/sorriso.html",
      "reyting": "0",
      "hours": "Աշխ. ժամեր09:00 - 00:00"
    },
    {
      "title": "Ուրբան Գարեջրատուն Խեցգետին, Գարեջրատուն և Փաբ, Խորոված, քյաբաբ, Լանչ, Գարեջուր, Խեցգետին",
      "menu": "Խեցգետին, Գարեջրատուն և Փաբ, Խորոված, քյաբաբ, Լանչ, Գարեջուր, Խեցգետին",
      "url": "/restaurant/urban-beer-house.html",
      "reyting": "80",
      "hours": "Աշխ. ժամեր11:00 - 02:00"
    },
    {
      "title": "Մեղրատուն Քաղցրավենիք, Գաստրոնոմ, Էկո և Օրգանական սնունդ",
      "menu": "Քաղցրավենիք, Գաստրոնոմ, Էկո և Օրգանական սնունդ",
      "url": "/restaurant/honey-house.html",
      "reyting": "0",
      "hours": "Աշխ. ժամեր14:00 - 22:00"
    },
    {
      "title": "Սիննաբոն Քաղցրավենիք, Բուրգեր և Սենդվիչ, Սուրճ և Թեյ",
      "menu": "Քաղցրավենիք, Բուրգեր և Սենդվիչ, Սուրճ և Թեյ",
      "url": "/restaurant/cinnabon.html",
      "reyting": "90",
      "hours": "Աշխ. ժամեր09:30 - 00:00"
    },
    {
      "title": "Միմինո Խորոված, քյաբաբ, Հայկական, Վրացական",
      "menu": "Խորոված, քյաբաբ, Հայկական, Վրացական",
      "url": "/restaurant/mimino.html",
      "reyting": "0",
      "hours": "Աշխ. ժամեր11:00 - 23:30"
    },
    {
      "title": "Մոնրո Կաֆե Եվրոպական, Իտալական, Պաստա, Պիցցա",
      "menu": "Եվրոպական, Իտալական, Պաստա, Պիցցա",
      "url": "/restaurant/monroe-cafe.html",
      "reyting": "0",
      "hours": "Աշխ. ժամեր11:00 - 00:00"
    },
    {
      "title": "Թումանյան Ֆրեշ Ֆրեշ, Պաղպաղակ",
      "menu": "Ֆրեշ, Պաղպաղակ",
      "url": "/restaurant/tumanyan-fresh.html",
      "reyting": "0",
      "hours": "Աշխ. ժամեր11:00 - 23:00"
    },
    {
      "title": "Հալեպյան սենդվիչ Արևելյան, Բուրգեր և Սենդվիչ",
      "menu": "Արևելյան, Բուրգեր և Սենդվիչ",
      "url": "/restaurant/aleppo-sandwich.html",
      "reyting": "0",
      "hours": "Աշխ. ժամեր10:30 - 23:00"
    },
    {
      "title": "Լոտուս Չինական, Ասիական, Սուշի, Ճապոնական",
      "menu": "Չինական, Ասիական, Սուշի, Ճապոնական",
      "url": "/restaurant/lotus.html",
      "reyting": "0",
      "hours": "Աշխ. ժամեր11:30 - 22:50"
    },
    {
      "title": "Փափայա Քաղցրավենիք",
      "menu": "Քաղցրավենիք",
      "url": "/restaurant/papaya.html",
      "reyting": "0",
      "hours": "Աշխ. ժամեր10:00 - 21:00"
    },
    {
      "title": "Աչաջուր Բուրգեր և Սենդվիչ, Ֆրեշ, Պաղպաղակ, Սուրճ և Թեյ, Նախաճաշ",
      "menu": "Բուրգեր և Սենդվիչ, Ֆրեշ, Պաղպաղակ, Սուրճ և Թեյ, Նախաճաշ",
      "url": "/restaurant/achajour.html",
      "reyting": "0",
      "hours": "Աշխ. ժամեր08:00 - 00:00"
    },
    {
      "title": "Սիսի Արևելյան, Բուրգեր և Սենդվիչ",
      "menu": "Արևելյան, Բուրգեր և Սենդվիչ",
      "url": "/restaurant/sisi-cafe.html",
      "reyting": "0",
      "hours": "00:00 - 01:00"
    },
    {
      "title": "Վերոնա Բուրգեր և Սենդվիչ, Եվրոպական, Իտալական, Պաստա, Պիցցա",
      "menu": "Բուրգեր և Սենդվիչ, Եվրոպական, Իտալական, Պաստա, Պիցցա",
      "url": "/restaurant/verona.html",
      "reyting": "0",
      "hours": "Աշխ. ժամեր09:00 - 00:00"
    },
    {
      "title": "Արևելյան Շաուրմա Լահմաջո, Խորոված, քյաբաբ, Շաուրմա",
      "menu": "Լահմաջո, Խորոված, քյաբաբ, Շաուրմա",
      "url": "/restaurant/eastern-shaurma.html",
      "reyting": "100",
      "hours": "Աշխ. ժամեր10:00 - 02:00"
    },
    {
      "title": "Լակի Դեսերտ Քաղցրավենիք",
      "menu": "Քաղցրավենիք",
      "url": "/restaurant/laki-dessert-art-studio.html",
      "reyting": "0",
      "hours": "Աշխ. ժամեր09:00 - 20:00"
    },
    {
      "title": "Լուի Շարդեն Քաղցրավենիք, Բուրգեր և Սենդվիչ, Եվրոպական, Հացաբուլկեղեն, Պաստա, Ֆրանսիական",
      "menu": "Քաղցրավենիք, Բուրգեր և Սենդվիչ, Եվրոպական, Հացաբուլկեղեն, Պաստա, Ֆրանսիական",
      "url": "/restaurant/louis-charden.html",
      "reyting": "0",
      "hours": "Աշխ. ժամեր08:30 - 23:30"
    },
    {
      "title": "Ֆիոնա Ֆլորա Ծաղիկներ և Փուչիկներ",
      "menu": "Ծաղիկներ և Փուչիկներ",
      "url": "/restaurant/fiona-flora.html",
      "reyting": "0",
      "hours": "Աշխ. ժամեր07:30 - 00:00"
    },
    {
      "title": "Միլոս Բուրգեր և Սենդվիչ, Եվրոպական, Լանչ, Հունական",
      "menu": "Բուրգեր և Սենդվիչ, Եվրոպական, Լանչ, Հունական",
      "url": "/restaurant/milos.html",
      "reyting": "80",
      "hours": "Աշխ. ժամեր10:00 - 23:30"
    },
    {
      "title": "Այնթապ Հրուշակեղեն Քաղցրավենիք, Արևելյան",
      "menu": "Քաղցրավենիք, Արևելյան",
      "url": "/restaurant/anteb-sweet.html",
      "reyting": "10",
      "hours": "Աշխ. ժամեր10:00 - 23:00"
    },
    {
      "title": "Ջազզվե Թու Գոու Կոֆի  Ֆրեշ, Պաղպաղակ, Սուրճ և Թեյ",
      "menu": "Ֆրեշ, Պաղպաղակ, Սուրճ և Թեյ",
      "url": "/restaurant/jazzve-to-go-coffee.html",
      "reyting": "0",
      "hours": "Աշխ. ժամեր10:00 - 23:30"
    },
    {
      "title": "Սպագո Գրիլ Ասիական, Մոնղոլական",
      "menu": "Ասիական, Մոնղոլական",
      "url": "/restaurant/spago-grill-yerevan-mall.html",
      "reyting": "0",
      "hours": "Աշխ. ժամեր10:00 - 22:00"
    },
    {
      "title": "Մոնտե Քրիստո Խորոված, քյաբաբ, Հայկական",
      "menu": "Խորոված, քյաբաբ, Հայկական",
      "url": "/restaurant/monte-cristo.html",
      "reyting": "0",
      "hours": "Աշխ. ժամեր10:30 - 00:00"
    },
    {
      "title": "Արտբրիջ Բուրգեր և Սենդվիչ, Եվրոպական, Նախաճաշ, Պաստա",
      "menu": "Բուրգեր և Սենդվիչ, Եվրոպական, Նախաճաշ, Պաստա",
      "url": "/restaurant/artbridge.html",
      "reyting": "100",
      "hours": "Աշխ. ժամեր08:30 - 00:00"
    },
    {
      "title": "Աբխազական գրիլ Խորոված, քյաբաբ, Հավի գրիլ, Հայկական, Վրացական",
      "menu": "Խորոված, քյաբաբ, Հավի գրիլ, Հայկական, Վրացական",
      "url": "/restaurant/abkhazian-grill.html",
      "reyting": "70",
      "hours": "Աշխ. ժամեր11:00 - 22:50"
    },
    {
      "title": "Արայի Ամրոց Խորոված, քյաբաբ, Վրացական",
      "menu": "Խորոված, քյաբաբ, Վրացական",
      "url": "/restaurant/arayi-amroc.html",
      "reyting": "0",
      "hours": "Աշխ. ժամեր11:00 - 23:00"
    },
    {
      "title": "Սմուզի Ֆրեշ, Պաղպաղակ",
      "menu": "Ֆրեշ, Պաղպաղակ",
      "url": "/restaurant/smoothie.html",
      "reyting": "67.6",
      "hours": "Աշխ. ժամեր10:00 - 23:00"
    },
    {
      "title": "Ժենգյալով հաց Արցախյան, Ժենգյալով Հաց, Հայկական",
      "menu": "Արցախյան, Ժենգյալով Հաց, Հայկական",
      "url": "/restaurant/jengyalov-hats.html",
      "reyting": "100",
      "hours": "Աշխ. ժամեր10:30 - 21:30"
    },
    {
      "title": "Ֆլորեքս Ծաղիկներ և Փուչիկներ",
      "menu": "Ծաղիկներ և Փուչիկներ",
      "url": "/restaurant/florex.html",
      "reyting": "0",
      "hours": "Աշխ. ժամեր09:30 - 19:30"
    },
    {
      "title": "Փոքր Փարիզ Քաղցրավենիք, Բուրգեր և Սենդվիչ, Եվրոպական, Ֆրեշ, Պաղպաղակ, Սուրճ և Թեյ, Նախաճաշ, Ֆրանսիական",
      "menu": "Քաղցրավենիք, Բուրգեր և Սենդվիչ, Եվրոպական, Ֆրեշ, Պաղպաղակ, Սուրճ և Թեյ, Նախաճաշ, Ֆրանսիական",
      "url": "/restaurant/le-petit-paris.html",
      "reyting": "10",
      "hours": "Աշխ. ժամեր09:30 - 23:00"
    },
    {
      "title": "Բլեք Շիշա Նարգիլե և Սիգար",
      "menu": "Նարգիլե և Սիգար",
      "url": "/restaurant/black-shisha.html",
      "reyting": "0",
      "hours": "Աշխ. ժամեր13:00 - 00:00"
    },
    {
      "title": "Ռիլ Յամմի Բեյգլզ Քաղցրավենիք, Գաստրոնոմ, Հացաբուլկեղեն, Ֆրեշ, Պաղպաղակ",
      "menu": "Քաղցրավենիք, Գաստրոնոմ, Հացաբուլկեղեն, Ֆրեշ, Պաղպաղակ",
      "url": "/restaurant/real-yummy-bagels.html",
      "reyting": "0",
      "hours": "24 ժամ"
    },
    {
      "title": "Բլիզզարդ լանչ Լանչ",
      "menu": "Լանչ",
      "url": "/restaurant/blizzard-lunch.html",
      "reyting": "0",
      "hours": "Աշխ. ժամեր08:30 - 16:00"
    },
    {
      "title": "Իլ Սոլո Ջելատո Ֆրեշ, Պաղպաղակ",
      "menu": "Ֆրեշ, Պաղպաղակ",
      "url": "/restaurant/il-solo-gelato.html",
      "reyting": "0",
      "hours": "Աշխ. ժամեր10:00 - 23:00"
    },
    {
      "title": "Բագետ էնդ Կո Քաղցրավենիք, Խորոված, քյաբաբ, Հացաբուլկեղեն, Սուրճ և Թեյ, Նախաճաշ",
      "menu": "Քաղցրավենիք, Խորոված, քյաբաբ, Հացաբուլկեղեն, Սուրճ և Թեյ, Նախաճաշ",
      "url": "/restaurant/baguette-and-co.html",
      "reyting": "73.4",
      "hours": "Աշխ. ժամեր08:00 - 23:30"
    },
    {
      "title": "Ջազզվե Բուրգեր և Սենդվիչ, Եվրոպական",
      "menu": "Բուրգեր և Սենդվիչ, Եվրոպական",
      "url": "/restaurant/jazzve.html",
      "reyting": "0",
      "hours": "Աշխ. ժամեր10:00 - 23:30"
    },
    {
      "title": "Մեր Գյուղը Հայկական",
      "menu": "Հայկական",
      "url": "/restaurant/our-village.html",
      "reyting": "0",
      "hours": "Աշխ. ժամեր11:00 - 23:30"
    },
    {
      "title": "Սուլիկո Լավ առաջարկ, Խորոված, քյաբաբ, Վրացական",
      "menu": "Լավ առաջարկ, Խորոված, քյաբաբ, Վրացական",
      "url": "/restaurant/suliko.html",
      "reyting": "76.6",
      "hours": "Աշխ. ժամեր10:00 - 00:00"
    },
    {
      "title": "Սակուրադա Ասիական, Սուշի, Ճապոնական",
      "menu": "Ասիական, Սուշի, Ճապոնական",
      "url": "/restaurant/sakurada.html",
      "reyting": "100",
      "hours": "Աշխ. ժամեր12:00 - 22:00"
    },
    {
      "title": "Էդեն Ամերիկյան, Բուրգեր և Սենդվիչ, Պաստա",
      "menu": "Ամերիկյան, Բուրգեր և Սենդվիչ, Պաստա",
      "url": "/restaurant/eden.html",
      "reyting": "0",
      "hours": "Աշխ. ժամեր10:00 - 00:00"
    },
    {
      "title": "Մանա Բիստրո Պիցցա",
      "menu": "Պիցցա",
      "url": "/restaurant/mana-bistro.html",
      "reyting": "0",
      "hours": "Աշխ. ժամեր11:00 - 20:00"
    },
    {
      "title": "Էնի Ռոուզ Ծաղիկներ և Փուչիկներ",
      "menu": "Ծաղիկներ և Փուչիկներ",
      "url": "/restaurant/any-rose.html",
      "reyting": "0",
      "hours": "24 ժամ"
    },
    {
      "title": "Բիրբուրգ Գարեջրատուն Խեցգետին, Ըմպելիքներ և Խորտիկներ, Գարեջրատուն և Փաբ, Գարեջուր, Խեցգետին",
      "menu": "Խեցգետին, Ըմպելիքներ և Խորտիկներ, Գարեջրատուն և Փաբ, Գարեջուր, Խեցգետին",
      "url": "/restaurant/beerburg-beer-house.html",
      "reyting": "55",
      "hours": "Աշխ. ժամեր13:00 - 23:00"
    },
    {
      "title": "Քուին Բուրգեր Ամերիկյան, Բուրգեր և Սենդվիչ",
      "menu": "Ամերիկյան, Բուրգեր և Սենդվիչ",
      "url": "/restaurant/queen-burger.html",
      "reyting": "0",
      "hours": "Աշխ. ժամեր11:00 - 23:00"
    },
    {
      "title": "Սքուեր Ուան Անգլիական, Ամերիկյան, Բուրգեր և Սենդվիչ, Նախաճաշ, Պաստա, Պիցցա",
      "menu": "Անգլիական, Ամերիկյան, Բուրգեր և Սենդվիչ, Նախաճաշ, Պաստա, Պիցցա",
      "url": "/restaurant/square-one.html",
      "reyting": "100",
      "hours": "Աշխ. ժամեր09:30 - 23:30"
    },
    {
      "title": "Դան Դեսերտ Քաղցրավենիք",
      "menu": "Քաղցրավենիք",
      "url": "/restaurant/dan-dessert.html",
      "reyting": "87.2",
      "hours": "Աշխ. ժամեր09:30 - 21:00"
    },
    {
      "title": "ՋուրՋուր Ըմպելիքներ և Խորտիկներ",
      "menu": "Ըմպելիքներ և Խորտիկներ",
      "url": "/restaurant/jurjur.html",
      "reyting": "100",
      "hours": "Աշխ. ժամեր09:00 - 17:30"
    },
    {
      "title": "Վասաբի Ֆաստ Ֆուդ Ասիական, Պաստա, Ճապոնական",
      "menu": "Ասիական, Պաստա, Ճապոնական",
      "url": "/restaurant/wasabi-noodles-rice-and-more.html",
      "reyting": "0",
      "hours": "Աշխ. ժամեր10:00 - 22:00"
    },
    {
      "title": "Ֆրեշ Հաուս Ֆրեշ, Պաղպաղակ, Սուրճ և Թեյ",
      "menu": "Ֆրեշ, Պաղպաղակ, Սուրճ և Թեյ",
      "url": "/restaurant/fresh-house-opera.html",
      "reyting": "100",
      "hours": "Աշխ. ժամեր10:30 - 23:00"
    },
    {
      "title": "Պասիֆլորա Ծաղիկներ և Փուչիկներ",
      "menu": "Ծաղիկներ և Փուչիկներ",
      "url": "/restaurant/passion-flower.html",
      "reyting": "55",
      "hours": "24 ժամ"
    },
    {
      "title": "Anahit.am Ծաղիկներ և Փուչիկներ",
      "menu": "Ծաղիկներ և Փուչիկներ",
      "url": "/restaurant/anahitam.html",
      "reyting": "80",
      "hours": "Աշխ. ժամեր09:30 - 22:30"
    },
    {
      "title": "ԼեվՐիմ Հացաբուլկեղեն",
      "menu": "Հացաբուլկեղեն",
      "url": "/restaurant/levrim.html",
      "reyting": "0",
      "hours": "Աշխ. ժամեր09:00 - 20:00"
    },
    {
      "title": "Լահմաջո Խաչապուրի Բուրգեր և Սենդվիչ, Լահմաջո, Խորոված, քյաբաբ, Կարկանդակ, Շաուրմա",
      "menu": "Բուրգեր և Սենդվիչ, Լահմաջո, Խորոված, քյաբաբ, Կարկանդակ, Շաուրմա",
      "url": "/restaurant/lahmajo-khachapuri.html",
      "reyting": "0",
      "hours": "Աշխ. ժամեր09:00 - 21:00"
    },
    {
      "title": "Մայ Փարթի Քաղցրավենիք",
      "menu": "Քաղցրավենիք",
      "url": "/restaurant/my-party.html",
      "reyting": "0",
      "hours": "Աշխ. ժամեր10:00 - 20:00"
    },
    {
      "title": "Բրիոշ Քաղցրավենիք, Բուրգեր և Սենդվիչ, Եվրոպական, Հացաբուլկեղեն, Նախաճաշ, Ֆրանսիական",
      "menu": "Քաղցրավենիք, Բուրգեր և Սենդվիչ, Եվրոպական, Հացաբուլկեղեն, Նախաճաշ, Ֆրանսիական",
      "url": "/restaurant/brioche.html",
      "reyting": "100",
      "hours": "Աշխ. ժամեր08:00 - 22:00"
    },
    {
      "title": "Երևան Թայմ Խորոված, քյաբաբ, Պիցցա",
      "menu": "Խորոված, քյաբաբ, Պիցցա",
      "url": "/restaurant/yerevan-time.html",
      "reyting": "0",
      "hours": "Աշխ. ժամեր10:00 - 23:00"
    },
    {
      "title": "Արաքս Քեյք Քաղցրավենիք, Կարկանդակ",
      "menu": "Քաղցրավենիք, Կարկանդակ",
      "url": "/restaurant/araks-cake.html",
      "reyting": "100",
      "hours": "Աշխ. ժամեր10:00 - 21:00"
    },
    {
      "title": "Սալատ Հաուս Կիսաֆաբրիկատներ, Լանչ",
      "menu": "Կիսաֆաբրիկատներ, Լանչ",
      "url": "/restaurant/salad-house.html",
      "reyting": "0",
      "hours": "Աշխ. ժամեր10:00 - 21:00"
    },
    {
      "title": "Լիփ Լիք Քեյքս Քաղցրավենիք",
      "menu": "Քաղցրավենիք",
      "url": "/restaurant/lip-lick-cakes.html",
      "reyting": "0",
      "hours": "24 ժամ"
    },
    {
      "title": "Հին Ջրվեժ Խորոված, քյաբաբ, Հայկական",
      "menu": "Խորոված, քյաբաբ, Հայկական",
      "url": "/restaurant/old-jrvezh.html",
      "reyting": "0",
      "hours": "Աշխ. ժամեր10:00 - 23:30"
    },
    {
      "title": "Ռոլլեր Արցախյան, Լավ առաջարկ, Արևելյան, Լահմաջո, Շաուրմա",
      "menu": "Արցախյան, Լավ առաջարկ, Արևելյան, Լահմաջո, Շաուրմա",
      "url": "/restaurant/roller.html",
      "reyting": "50",
      "hours": "Աշխ. ժամեր10:00 - 22:30"
    },
    {
      "title": "Պիրոժկոֆֆ Հացաբուլկեղեն, Կարկանդակ",
      "menu": "Հացաբուլկեղեն, Կարկանդակ",
      "url": "/restaurant/pirojkoff.html",
      "reyting": "100",
      "hours": "Աշխ. ժամեր09:00 - 19:00"
    },
    {
      "title": "Արտ Լանչ Խորոված, քյաբաբ, Լանչ, Հայկական, Շաուրմա",
      "menu": "Խորոված, քյաբաբ, Լանչ, Հայկական, Շաուրմա",
      "url": "/restaurant/art-lunch.html",
      "reyting": "55",
      "hours": "Աշխ. ժամեր11:00 - 17:00"
    },
    {
      "title": "Կարմիր Գլխարկ Քաղցրավենիք, Կարկանդակ",
      "menu": "Քաղցրավենիք, Կարկանդակ",
      "url": "/restaurant/karmir-glkhark.html",
      "reyting": "90",
      "hours": "Աշխ. ժամեր10:00 - 23:00"
    },
    {
      "title": "BubbleTea Ֆրեշ, Պաղպաղակ",
      "menu": "Ֆրեշ, Պաղպաղակ",
      "url": "/restaurant/bubbletea.html",
      "reyting": "0",
      "hours": "Աշխ. ժամեր10:00 - 01:00"
    },
    {
      "title": "Լոռի հացատուն Խեցգետին, Գարեջրատուն և Փաբ, Խորոված, քյաբաբ, Հավի գրիլ, Հայկական, Գարեջուր, Խեցգետին",
      "menu": "Խեցգետին, Գարեջրատուն և Փաբ, Խորոված, քյաբաբ, Հավի գրիլ, Հայկական, Գարեջուր, Խեցգետին",
      "url": "/restaurant/lori-hacatun.html",
      "reyting": "100",
      "hours": "Աշխ. ժամեր10:00 - 23:00"
    },
    {
      "title": "Սեգաֆրեդո Եվրոպական, Իտալական, Սուրճ և Թեյ, Նախաճաշ",
      "menu": "Եվրոպական, Իտալական, Սուրճ և Թեյ, Նախաճաշ",
      "url": "/restaurant/segafredo-zanetti.html",
      "reyting": "0",
      "hours": "Աշխ. ժամեր08:30 - 00:30"
    },
    {
      "title": "Ռելաքս Հոլ Եվրոպական, Պաստա, Սթեյք",
      "menu": "Եվրոպական, Պաստա, Սթեյք",
      "url": "/restaurant/relax-hall-hookah-place.html",
      "reyting": "0",
      "hours": "Աշխ. ժամեր12:00 - 00:00"
    },
    {
      "title": "Մեծ Հայք Խորոված, քյաբաբ, Հավի գրիլ, Հայկական, Պիցցա",
      "menu": "Խորոված, քյաբաբ, Հավի գրիլ, Հայկական, Պիցցա",
      "url": "/restaurant/mets-hayk.html",
      "reyting": "0",
      "hours": "Աշխ. ժամեր09:30 - 01:00"
    },
    {
      "title": "Փարթի Թայմ Քաղցրավենիք, Ծաղիկներ և Փուչիկներ",
      "menu": "Քաղցրավենիք, Ծաղիկներ և Փուչիկներ",
      "url": "/restaurant/party-time.html",
      "reyting": "0",
      "hours": "Աշխ. ժամեր10:00 - 20:00"
    },
    {
      "title": "Քրիստի Ծաղկի Սրահ Ծաղիկներ և Փուչիկներ",
      "menu": "Ծաղիկներ և Փուչիկներ",
      "url": "/restaurant/qristi-flowers-salon.html",
      "reyting": "0",
      "hours": "Աշխ. ժամեր08:00 - 00:00"
    },
    {
      "title": "Չուրոս Քաղցրավենիք",
      "menu": "Քաղցրավենիք",
      "url": "/restaurant/churros.html",
      "reyting": "0",
      "hours": "Աշխ. ժամեր11:00 - 22:00"
    },
    {
      "title": "ՎՍ Գաստրոնոմ, Լահմաջո, Կիսաֆաբրիկատներ",
      "menu": "Գաստրոնոմ, Լահմաջո, Կիսաֆաբրիկատներ",
      "url": "/restaurant/vs.html",
      "reyting": "0",
      "hours": "Աշխ. ժամեր10:00 - 20:00"
    },
    {
      "title": "Վերնյանո Բուրգեր և Սենդվիչ, Իտալական, Սուրճ և Թեյ, Պաստա, Պիցցա",
      "menu": "Բուրգեր և Սենդվիչ, Իտալական, Սուրճ և Թեյ, Պաստա, Պիցցա",
      "url": "/restaurant/vergnano.html",
      "reyting": "0",
      "hours": "Աշխ. ժամեր08:30 - 00:00"
    },
    {
      "title": "Տիգրան Մեծի Պանդոկ Խորոված, քյաբաբ, Հայկական, Պաստա",
      "menu": "Խորոված, քյաբաբ, Հայկական, Պաստա",
      "url": "/restaurant/tavern-of-tigran-mets.html",
      "reyting": "0",
      "hours": "Աշխ. ժամեր07:00 - 23:00"
    },
    {
      "title": "Քոֆի Փոյինթ Քաղցրավենիք, Բուրգեր և Սենդվիչ, Ֆրեշ, Պաղպաղակ",
      "menu": "Քաղցրավենիք, Բուրգեր և Սենդվիչ, Ֆրեշ, Պաղպաղակ",
      "url": "/restaurant/coffee-point.html",
      "reyting": "0",
      "hours": "Աշխ. ժամեր08:30 - 21:30"
    },
    {
      "title": "Շահ Պիցցա Իրանական/Պարսկական",
      "menu": "Իրանական/Պարսկական",
      "url": "/restaurant/shah-pizza.html",
      "reyting": "0",
      "hours": "Աշխ. ժամեր09:30 - 00:00"
    },
    {
      "title": "Գրին Բին Եվրոպական",
      "menu": "Եվրոպական",
      "url": "/restaurant/the-green-bean.html",
      "reyting": "100",
      "hours": "Աշխ. ժամեր08:30 - 23:00"
    },
    {
      "title": "Պռոշյան Լաունջ Ռեստորան Լավ առաջարկ, Հայկական",
      "menu": "Լավ առաջարկ, Հայկական",
      "url": "/restaurant/proshyan-lounge.html",
      "reyting": "0",
      "hours": "Աշխ. ժամեր10:00 - 23:00"
    },
    {
      "title": "Տնական Գյուղմթերք Խեցգետին, Գաստրոնոմ, Էկո և Օրգանական սնունդ, Թարմ միս և մսամթերք, Գարեջուր, Խեցգետին",
      "menu": "Խեցգետին, Գաստրոնոմ, Էկո և Օրգանական սնունդ, Թարմ միս և մսամթերք, Գարեջուր, Խեցգետին",
      "url": "/restaurant/tnakan-gyughmterq.html",
      "reyting": "0",
      "hours": "Աշխ. ժամեր08:00 - 21:00"
    },
    {
      "title": "Գրին Վուդ Խեցգետին, Գարեջրատուն և Փաբ",
      "menu": "Խեցգետին, Գարեջրատուն և Փաբ",
      "url": "/restaurant/green-wood.html",
      "reyting": "0",
      "hours": "Աշխ. ժամեր11:00 - 00:00"
    },
    {
      "title": "Մերի Բեյքերի Քաղցրավենիք",
      "menu": "Քաղցրավենիք",
      "url": "/restaurant/mary-bakery.html",
      "reyting": "0",
      "hours": "Աշխ. ժամեր09:00 - 20:00"
    },
    {
      "title": "Պանդոկ N1 Հայկական",
      "menu": "Հայկական",
      "url": "/restaurant/pandok-n1.html",
      "reyting": "0",
      "hours": "Աշխ. ժամեր09:30 - 21:00"
    },
    {
      "title": "Պեչկա Սլոյկա Կիսաֆաբրիկատներ, Կարկանդակ",
      "menu": "Կիսաֆաբրիկատներ, Կարկանդակ",
      "url": "/restaurant/pechka-sloyka.html",
      "reyting": "0",
      "hours": "Աշխ. ժամեր09:00 - 18:00"
    },
    {
      "title": "Բրաբիոն Ծաղիկներ և Փուչիկներ",
      "menu": "Ծաղիկներ և Փուչիկներ",
      "url": "/restaurant/brabion.html",
      "reyting": "0",
      "hours": "Աշխ. ժամեր08:00 - 22:00"
    },
    {
      "title": "Էլ Գարդեն Հայկական",
      "menu": "Հայկական",
      "url": "/restaurant/el-garden.html",
      "reyting": "0",
      "hours": "Աշխ. ժամեր11:00 - 23:00"
    },
    {
      "title": "Մոլինարի Իտալական, Սուրճ և Թեյ",
      "menu": "Իտալական, Սուրճ և Թեյ",
      "url": "/restaurant/molinari-caffe.html",
      "reyting": "0",
      "hours": "Աշխ. ժամեր10:00 - 22:00"
    },
    {
      "title": "Լա Բուլանժերի դե Փարիզ Սուրճ և Թեյ, Ֆրանսիական",
      "menu": "Սուրճ և Թեյ, Ֆրանսիական",
      "url": "/restaurant/la-boulangerie-de-paris.html",
      "reyting": "0",
      "hours": "Աշխ. ժամեր10:00 - 22:00"
    },
    {
      "title": "Դոլչե Մոնդո Ֆրեշ, Պաղպաղակ",
      "menu": "Ֆրեշ, Պաղպաղակ",
      "url": "/restaurant/dolcemondo.html",
      "reyting": "0",
      "hours": "Աշխ. ժամեր10:00 - 23:00"
    },
    {
      "title": "Դոլչետտո Ծաղիկներ և Փուչիկներ",
      "menu": "Ծաղիկներ և Փուչիկներ",
      "url": "/restaurant/dolchetto.html",
      "reyting": "10",
      "hours": "Աշխ. ժամեր08:00 - 00:00"
    },
    {
      "title": "Սուշի Մարկետ Վասաբի Կիսաֆաբրիկատներ, Սուշի",
      "menu": "Կիսաֆաբրիկատներ, Սուշի",
      "url": "/restaurant/sushi-market-wasabi.html",
      "reyting": "0",
      "hours": "Աշխ. ժամեր11:00 - 03:00"
    },
    {
      "title": "Երազ Լաունջ Եվրոպական",
      "menu": "Եվրոպական",
      "url": "/restaurant/yeraz-lounge-bar-restaurant.html",
      "reyting": "0",
      "hours": "Աշխ. ժամեր11:00 - 23:00"
    },
    {
      "title": "Քինգ Շաուրմա Հոթ Դոգ, Շաուրմա",
      "menu": "Հոթ Դոգ, Շաուրմա",
      "url": "/restaurant/king-shaurma.html",
      "reyting": "80",
      "hours": "Աշխ. ժամեր10:00 - 22:00"
    },
    {
      "title": "Ֆլամբէ Քաղցրավենիք",
      "menu": "Քաղցրավենիք",
      "url": "/restaurant/flambe.html",
      "reyting": "80",
      "hours": "Աշխ. ժամեր10:00 - 21:00"
    },
    {
      "title": "Բիր Գարդեն Խեցգետին, Գարեջրատուն և Փաբ, Գարեջուր, Խեցգետին",
      "menu": "Խեցգետին, Գարեջրատուն և Փաբ, Գարեջուր, Խեցգետին",
      "url": "/restaurant/beer-garden.html",
      "reyting": "0",
      "hours": "Աշխ. ժամեր11:00 - 01:00"
    },
    {
      "title": "Բուրգեր Շոփ Հոթ Դոգ, Բուրգեր և Սենդվիչ, Կարկանդակ",
      "menu": "Հոթ Դոգ, Բուրգեր և Սենդվիչ, Կարկանդակ",
      "url": "/restaurant/burger-shop.html",
      "reyting": "40",
      "hours": "Աշխ. ժամեր09:00 - 18:30"
    },
    {
      "title": "HB Գարեջրատուն Խեցգետին, Գարեջրատուն և Փաբ, Գարեջուր, Խեցգետին",
      "menu": "Խեցգետին, Գարեջրատուն և Փաբ, Գարեջուր, Խեցգետին",
      "url": "/restaurant/hb-beer-house.html",
      "reyting": "100",
      "hours": "Աշխ. ժամեր10:00 - 23:00"
    },
    {
      "title": "Դը Վայն Հաուս Ձուկ և ծովամթերք, Բուրգեր և Սենդվիչ, Եվրոպական, Պաստա, Սթեյք",
      "menu": "Ձուկ և ծովամթերք, Բուրգեր և Սենդվիչ, Եվրոպական, Պաստա, Սթեյք",
      "url": "/restaurant/the-wine-house.html",
      "reyting": "70",
      "hours": "Աշխ. ժամեր10:00 - 01:00"
    },
    {
      "title": "Բելլաջիո Ձուկ և ծովամթերք, Խորոված, քյաբաբ, Հայկական, Պաստա",
      "menu": "Ձուկ և ծովամթերք, Խորոված, քյաբաբ, Հայկական, Պաստա",
      "url": "/restaurant/bellagio.html",
      "reyting": "0",
      "hours": "Աշխ. ժամեր10:00 - 00:00"
    },
    {
      "title": "Վանիլա Քոֆի Եվրոպական",
      "menu": "Եվրոպական",
      "url": "/restaurant/vanilla-coffee.html",
      "reyting": "0",
      "hours": "Աշխ. ժամեր10:00 - 22:00"
    },
    {
      "title": "Կանտատա Սուրճ և Թեյ",
      "menu": "Սուրճ և Թեյ",
      "url": "/restaurant/cantata.html",
      "reyting": "0",
      "hours": "Աշխ. ժամեր10:00 - 22:00"
    },
    {
      "title": "Գրեմմի Սրճարան Բուրգեր և Սենդվիչ, Խորոված, քյաբաբ, Պաստա, Պիցցա, Սթեյք",
      "menu": "Բուրգեր և Սենդվիչ, Խորոված, քյաբաբ, Պաստա, Պիցցա, Սթեյք",
      "url": "/restaurant/grammy-cafe.html",
      "reyting": "0",
      "hours": "Աշխ. ժամեր11:00 - 00:00"
    },
    {
      "title": "Հեմինգուեյս Ըմպելիքներ և Խորտիկներ, Գարեջրատուն և Փաբ",
      "menu": "Ըմպելիքներ և Խորտիկներ, Գարեջրատուն և Փաբ",
      "url": "/restaurant/hemingways-pub.html",
      "reyting": "0",
      "hours": "Աշխ. ժամեր10:00 - 04:00"
    },
    {
      "title": "Կարապի լիճ Գարեջրատուն և Փաբ, Եվրոպական, Պաստա, Պիցցա, Սթեյք",
      "menu": "Գարեջրատուն և Փաբ, Եվրոպական, Պաստա, Պիցցա, Սթեյք",
      "url": "/restaurant/swan-lake.html",
      "reyting": "0",
      "hours": "Աշխ. ժամեր11:00 - 01:00"
    },
    {
      "title": "Մոն Կաֆե Լավ առաջարկ, Բուրգեր և Սենդվիչ, Եվրոպական, Պաստա, Սթեյք",
      "menu": "Լավ առաջարկ, Բուրգեր և Սենդվիչ, Եվրոպական, Պաստա, Սթեյք",
      "url": "/restaurant/mon-cafe.html",
      "reyting": "0",
      "hours": "Աշխ. ժամեր10:00 - 02:00"
    },
    {
      "title": "Ջասմինա Ծաղիկներ Ծաղիկներ և Փուչիկներ",
      "menu": "Ծաղիկներ և Փուչիկներ",
      "url": "/restaurant/jasmina-flowers.html",
      "reyting": "100",
      "hours": "Աշխ. ժամեր10:00 - 22:00"
    },
    {
      "title": "Կառնուտ Շաուրմա  Շաուրմա",
      "menu": "Շաուրմա",
      "url": "/restaurant/karnut-shaurma.html",
      "reyting": "88.6",
      "hours": "24 ժամ"
    },
    {
      "title": "Բաֆըլս Քաղցրավենիք, Ֆրեշ, Պաղպաղակ",
      "menu": "Քաղցրավենիք, Ֆրեշ, Պաղպաղակ",
      "url": "/restaurant/baffles.html",
      "reyting": "100",
      "hours": "Աշխ. ժամեր10:00 - 22:00"
    },
    {
      "title": "Թոնրատուն Կարս Հոթ Դոգ, Բուրգեր և Սենդվիչ, Խորոված, քյաբաբ, Հավի գրիլ, Հայկական",
      "menu": "Հոթ Դոգ, Բուրգեր և Սենդվիչ, Խորոված, քյաբաբ, Հավի գրիլ, Հայկական",
      "url": "/restaurant/tonratun-kars.html",
      "reyting": "100",
      "hours": "24 ժամ"
    },
    {
      "title": "",
      "menu": "",
      "reyting": "",
      "hours": ""
    },
    {
      "title": "",
      "menu": "",
      "reyting": "",
      "hours": ""
    },
    {
      "title": "",
      "menu": "",
      "reyting": "",
      "hours": ""
    },
    {
      "title": "",
      "menu": "",
      "reyting": "",
      "hours": ""
    },
    {
      "title": "",
      "menu": "",
      "reyting": "",
      "hours": ""
    }
  ]
}
